[
  {
    "id": "forestry-002",
    "source": "forestry",
    "name": "南澳古道",
    "difficulty": 1,
    "difficulty_label": "親子",
    "family_friendly": true,
    "length_km": 1.5,
    "alt_high": 350.0,
    "alt_low": 250.0,
    "ascent": 100.0,
    "pave": "木棧道、碎石山徑",
    "tour": "半天",
    "best_season": "四季皆宜",
    "region": "宜蘭縣",
    "position": "宜蘭縣南澳鄉",
    "system": "中央山脈脊樑國家步道系統",
    "admin": "宜蘭分署",
    "admin_phone": "(03)9981060",
    "permit": "無",
    "transport": {
      "car": 1,
      "m_bus": 0,
      "l_bus": 0
    },
    "entrances": [
      {
        "lat": 24.429261,
        "lon": 121.691686,
        "height": 329.0,
        "memo": null
      },
      {
        "lat": 24.423756,
        "lon": 121.708804,
        "height": 237.0,
        "memo": null
      }
    ],
    "lat": 24.429261,
    "lon": 121.691686,
    "guide": "南澳古道位在南澳鄉金洋村，是通往泰雅族舊部落的路徑之一，為「舊武塔古道」的一部分，也是泰雅族的傳統獵場。自旋檀駐在所遺址起，循南澳南溪上溯至古道終點，至合流溪與南澳南溪匯流口，共 3.8 公里。沿途平緩好走，野生動植物生態豐富，沿途有吊橋遺址、警備道路基等遺跡。",
    "url": "https://recreation.forest.gov.tw/Trail/RT?tr_id=002"
  },
  {
    "id": "forestry-004",
    "source": "forestry",
    "name": "金瓜寮魚蕨步道",
    "difficulty": 1,
    "difficulty_label": "親子",
    "family_friendly": true,
    "length_km": 1.06,
    "alt_high": 300.0,
    "alt_low": 290.0,
    "ascent": 10.0,
    "pave": "枕木階梯、土徑",
    "tour": "半天",
    "best_season": null,
    "region": "新北市",
    "position": "新北市坪林區",
    "system": "中央山脈脊樑國家步道系統",
    "admin": "宜蘭分署",
    "admin_phone": "(02)33437640",
    "permit": "無",
    "transport": {
      "car": 1,
      "m_bus": 1,
      "l_bus": 0
    },
    "entrances": [
      {
        "lat": 24.90343,
        "lon": 121.674092,
        "height": 288.0,
        "memo": null
      },
      {
        "lat": 24.89975,
        "lon": 121.673251,
        "height": 284.0,
        "memo": null
      }
    ],
    "lat": 24.90343,
    "lon": 121.674092,
    "guide": "金瓜寮魚蕨步道位於新北市坪林區，步道南北端皆可出入。步道有拱橋及觀景平臺，有較多階梯，走出南出口後向南續行可連接到新北市坪林區公所轄管的觀魚蕨類步道。全線沿著金瓜寮溪蜿蜒行進，溪水淙淙，可觀苦花魚、馬口魚等，亦有多種蕨類，適合親子出遊。",
    "url": "https://recreation.forest.gov.tw/Trail/RT?tr_id=004"
  },
  {
    "id": "forestry-005",
    "source": "forestry",
    "name": "拳頭姆自然步道",
    "difficulty": 1,
    "difficulty_label": "親子",
    "family_friendly": true,
    "length_km": 1.3,
    "alt_high": 310.0,
    "alt_low": 150.0,
    "ascent": 160.0,
    "pave": "原木及碎木屑鋪設",
    "tour": "半天",
    "best_season": "四季皆宜",
    "region": "宜蘭縣",
    "position": "宜蘭縣三星鄉",
    "system": "中央山脈脊樑國家步道系統",
    "admin": "宜蘭分署",
    "admin_phone": "(03)9580168",
    "permit": "無",
    "transport": {
      "car": 1,
      "m_bus": 1,
      "l_bus": 1
    },
    "entrances": [
      {
        "lat": 24.656122,
        "lon": 121.614412,
        "height": 180.0,
        "memo": "台七線9.5公里處"
      }
    ],
    "lat": 24.656122,
    "lon": 121.614412,
    "guide": "海拔三百多公尺的拳頭姆山位於宜蘭縣三星鄉境內天送埤地區，步道入口位於臺7丙9.5公里處，步道坡度平緩，行走輕鬆，步道環境為烏心石造林地，有豐富的蕨類與多樣的植物，隨著時序變化展現不同風情，也為鳥類及各種小生物提供良好的棲息環境；登頂可以俯瞰蘭陽溪及蘭陽平原，遙望中央山脈與雪山山脈。 \r\n\r\n拳頭姆步道原為荒草蔓生的舊林道，經林業及自然保育署以自然工法施設整修、並搭建觀景平臺，成為穿梭在林業及自然保育署羅東事業區47林班烏心石與肖楠造林地的生態步道。以如拳頭般山頭命名的拳頭姆步道，於民國96年9月中旬啟用。\r\n",
    "url": "https://recreation.forest.gov.tw/Trail/RT?tr_id=005"
  },
  {
    "id": "forestry-006",
    "source": "forestry",
    "name": "松羅步道",
    "difficulty": 1,
    "difficulty_label": "親子",
    "family_friendly": false,
    "length_km": 2.0,
    "alt_high": 400.0,
    "alt_low": 280.0,
    "ascent": 120.0,
    "pave": "石子路",
    "tour": "半天",
    "best_season": "四季皆宜",
    "region": "宜蘭縣",
    "position": "宜蘭縣大同鄉",
    "system": "中央山脈脊樑國家步道系統",
    "admin": "宜蘭分署",
    "admin_phone": "(03)9882514",
    "permit": "無",
    "transport": {
      "car": 1,
      "m_bus": 0,
      "l_bus": 0
    },
    "entrances": [
      {
        "lat": 24.668798,
        "lon": 121.563838,
        "height": 281.0,
        "memo": null
      },
      {
        "lat": 24.670412,
        "lon": 121.549558,
        "height": 414.0,
        "memo": null
      }
    ],
    "lat": 24.668798,
    "lon": 121.563838,
    "guide": "松羅步道依昔日泰雅獵徑整修而成。步道沿著松羅溪而行，林蔭蒼蒼，溪水淙淙，著生殖物繁盛，是步道最大的特色。低海拔及濕潤的環境，造就了雨林般的森林植被原始景觀。沿途松羅溪一路陪伴，可以在水中清楚看到近年保育的成果「臺灣?魚」優游其中，似乎也能感受到牠們的自在與喜樂。步道最讓人驚豔的是擁有其他步道無法相比的濕生動植物，以生意盎然的姿態在此生長，如濃密的山蘇隧道、大面積蕨類植物、隨處飛舞的蜻蜓等，彷彿置身亞馬遜。\r\n為了維護原始生態環境，自然步道皆是就地取材施作，儘量不使用違背原始自然生態的人工建材，因此行走起來特別舒服、也特別能融入於這片美麗的自然中。\r\n",
    "url": "https://recreation.forest.gov.tw/Trail/RT?tr_id=006"
  },
  {
    "id": "forestry-007",
    "source": "forestry",
    "name": "礁溪跑馬古道",
    "difficulty": 2,
    "difficulty_label": "輕鬆",
    "family_friendly": true,
    "length_km": 5.0,
    "alt_high": 419.0,
    "alt_low": 250.0,
    "ascent": 169.0,
    "pave": "土石路、碎石路",
    "tour": "一天",
    "best_season": "四季皆宜",
    "region": "新北市坪林區；宜蘭縣",
    "position": "新北市坪林區；宜蘭縣礁溪鄉、頭城鎮",
    "system": "中央山脈脊樑國家步道系統",
    "admin": "宜蘭分署",
    "admin_phone": "(03)9882514",
    "permit": "無",
    "transport": {
      "car": 1,
      "m_bus": 1,
      "l_bus": 1
    },
    "entrances": [
      {
        "lat": 24.838132,
        "lon": 121.772416,
        "height": 143.0,
        "memo": null
      },
      {
        "lat": 24.865119,
        "lon": 121.775433,
        "height": 518.0,
        "memo": "北宜公路59公里處"
      }
    ],
    "lat": 24.838132,
    "lon": 121.772416,
    "guide": "跑馬古道早期是先民搬運貨物或日軍巡邏、運輸補給的路線，雖時至今日，古道已翻修拓寬，但早期便於搬運的圓木枕和拖運的木馬仍有部份保留，讓現代人雖然是以悠閒的步調走訪，卻仍能夠感受到先人們匆匆不懈的勤奮步伐，更能體認到臺灣早期開墾的辛苦。 \r\n\r\n一走進古道，就可感受到樹林間吹來的清涼微風和芬多精，十分涼爽舒適，道路寬廣且坡度平緩好走，多以碎石道路居多，沿途更有可瞭望蘭陽平原、龜山島之路段、廢棄礦坑、柑橘果園、溪流等，適合闔家前往。\r\n",
    "url": "https://recreation.forest.gov.tw/Trail/RT?tr_id=007"
  },
  {
    "id": "forestry-008",
    "source": "forestry",
    "name": "林美石磐步道",
    "difficulty": 2,
    "difficulty_label": "輕鬆",
    "family_friendly": true,
    "length_km": 1.7,
    "alt_high": 300.0,
    "alt_low": 200.0,
    "ascent": 100.0,
    "pave": "石子路",
    "tour": "半天",
    "best_season": "四季皆宜",
    "region": "宜蘭縣",
    "position": "宜蘭縣礁溪鄉",
    "system": "中央山脈脊樑國家步道系統",
    "admin": "宜蘭分署",
    "admin_phone": "(03)9882514",
    "permit": "無",
    "transport": {
      "car": 0,
      "m_bus": 0,
      "l_bus": 0
    },
    "entrances": [
      {
        "lat": 24.827359,
        "lon": 121.733412,
        "height": 233.0,
        "memo": "草湳湖旁"
      }
    ],
    "lat": 24.827359,
    "lon": 121.733412,
    "guide": "林美石磐步道有著低海拔亞熱帶溪谷的景色，步道沿舊水圳整建，現寬敞平緩好走、又不失幽幽古意；沿途生態豐富，樹林成蔭，潺潺流水，散發陣陣芬多精，走在其中清爽無比，非常適合闔家一起健行。 \r\n\r\n步道名稱是由「林美」與「石磐」兩個名字組成，「林美」是指礁溪鄉林美村，而「石磐」指的是石磐瀑布，因此在這條步道中沿途常見溪流瀑布、大小不一的水潭與峽谷地形，景色秀麗，有「宜蘭的小太魯閣」之稱。當陽光透過樹葉射在步道上時，光影迷人，時有樹蛙及昆蟲在葉片上休息，是一條可以呼吸到大自然生動氣息的野趣步道。\r\n",
    "url": "https://recreation.forest.gov.tw/Trail/RT?tr_id=008"
  },
  {
    "id": "forestry-009",
    "source": "forestry",
    "name": "聖母登山步道",
    "difficulty": 2,
    "difficulty_label": "輕鬆",
    "family_friendly": false,
    "length_km": 1.63,
    "alt_high": 950.0,
    "alt_low": 400.0,
    "ascent": 550.0,
    "pave": "土木階梯",
    "tour": "一天",
    "best_season": "四季皆宜",
    "region": "宜蘭縣",
    "position": "宜蘭縣礁溪鄉",
    "system": "中央山脈脊樑國家步道系統",
    "admin": "宜蘭分署",
    "admin_phone": "(03)9882514",
    "permit": "無",
    "transport": {
      "car": 1,
      "m_bus": 0,
      "l_bus": 0
    },
    "entrances": [
      {
        "lat": 24.855125,
        "lon": 121.730607,
        "height": 900.0,
        "memo": "聖母山莊"
      },
      {
        "lat": 24.846998,
        "lon": 121.734725,
        "height": 410.0,
        "memo": "通天橋產業道路"
      }
    ],
    "lat": 24.855125,
    "lon": 121.730607,
    "guide": "聖母登山步道位於宜蘭縣礁溪鄉五峰旗瀑布風景區上方，為天主教徒的朝聖之路，亦是前往蘭陽五岳之一的三角崙山之中繼站。終點的觀景平臺是宜蘭與臺北行政疆界，東臨蘭陽平原、西枕雪山山脈層巒疊翠；而稜線迎風面箭竹綠海隨風飄動、沙沙歌聲，美得讓人駐足忘返。",
    "url": "https://recreation.forest.gov.tw/Trail/RT?tr_id=009"
  },
  {
    "id": "forestry-011",
    "source": "forestry",
    "name": "新寮瀑布步道",
    "difficulty": 1,
    "difficulty_label": "親子",
    "family_friendly": false,
    "length_km": 1.2,
    "alt_high": 205.0,
    "alt_low": 103.0,
    "ascent": 102.0,
    "pave": "路況良好",
    "tour": "半天",
    "best_season": "全年皆宜",
    "region": "宜蘭縣",
    "position": "宜蘭縣南澳鄉",
    "system": "中央山脈脊樑國家步道系統",
    "admin": "宜蘭分署",
    "admin_phone": "(03)9580169",
    "permit": "無",
    "transport": {
      "car": 1,
      "m_bus": 1,
      "l_bus": 1
    },
    "entrances": [
      {
        "lat": 24.599292,
        "lon": 121.74364,
        "height": 164.0,
        "memo": "新寮瀑布"
      },
      {
        "lat": 24.606219,
        "lon": 121.746841,
        "height": 107.0,
        "memo": "冬山工作站旁"
      }
    ],
    "lat": 24.599292,
    "lon": 121.74364,
    "guide": "新寮瀑布步道於宜蘭冬山中山村進入，沿著新寮溪溪谷溯源而上，全長1.2k。新寮溪因斷層地形發達，形成多座瀑布。步道林相豐富，生態多樣，流水潺潺，蛙鳴鳥語，極適合闔家出遊。第一層步道的前0.9k較為平坦，0.9k後的石階路較陡，但沿路更多激流斜瀑景致。",
    "url": "https://recreation.forest.gov.tw/Trail/RT?tr_id=011"
  },
  {
    "id": "forestry-012",
    "source": "forestry",
    "name": "九寮溪自然步道",
    "difficulty": 1,
    "difficulty_label": "親子",
    "family_friendly": true,
    "length_km": 3.0,
    "alt_high": 375.0,
    "alt_low": 250.0,
    "ascent": 125.0,
    "pave": "土石路",
    "tour": "半天",
    "best_season": "四季皆宜",
    "region": "宜蘭縣",
    "position": "宜蘭縣大同鄉",
    "system": "中央山脈脊樑國家步道系統",
    "admin": "宜蘭分署",
    "admin_phone": "(03)9882514",
    "permit": "無",
    "transport": {
      "car": 1,
      "m_bus": 1,
      "l_bus": 1
    },
    "entrances": [
      {
        "lat": 24.684693,
        "lon": 121.574473,
        "height": 330.0,
        "memo": "玉蘭瀑布"
      },
      {
        "lat": 24.683288,
        "lon": 121.585138,
        "height": 142.0,
        "memo": "台七線大同加油站"
      }
    ],
    "lat": 24.684693,
    "lon": 121.574473,
    "guide": "步道傍溪而行，終年溫暖潮濕。九寮溪由源自於雪山山脈拳頭姆山下的野溪匯集而成，水量充沛，溪水清澈，水溫近乎冷泉，流經多處斷層形成壯觀宏偉的飛瀑。步道入口位於大同鄉公所管轄九寮溪生態園區，步道全線為平坦土石路，輕鬆好走直達瀑布，林蔭茂密、附生植物及蕨類繁盛。",
    "url": "https://recreation.forest.gov.tw/Trail/RT?tr_id=012"
  },
  {
    "id": "forestry-013",
    "source": "forestry",
    "name": "台灣山毛櫸步道",
    "difficulty": 2,
    "difficulty_label": "輕鬆",
    "family_friendly": false,
    "length_km": 3.8,
    "alt_high": 1800.0,
    "alt_low": 1600.0,
    "ascent": 200.0,
    "pave": "自然土徑步道、原木步道及木棧道",
    "tour": "半天",
    "best_season": "秋季",
    "region": "宜蘭縣",
    "position": "宜蘭縣南澳鄉",
    "system": "中央山脈脊樑國家步道系統",
    "admin": "宜蘭分署",
    "admin_phone": "森林育樂科:(03)9545114",
    "permit": "無",
    "transport": {
      "car": 1,
      "m_bus": 0,
      "l_bus": 0
    },
    "entrances": [
      {
        "lat": 24.509309,
        "lon": 121.609867,
        "height": 1878.0,
        "memo": "翠峰山莊旁"
      },
      {
        "lat": 24.505583,
        "lon": 121.631222,
        "height": 1828.0,
        "memo": "山毛櫸林"
      }
    ],
    "lat": 24.509309,
    "lon": 121.609867,
    "guide": "臺灣山毛櫸步道為太平山森林遊樂區內較長的一條步道。前段較為平坦但雨天多泥濘；2.5公里後坡度變化較大，去程多為下坡，回程為上坡。步道沿途可見殘留的纜線、鐵道路基及轉轍器等林業遺跡，亦可觀察板岩岩壁、翠綠苔蘚、紅檜林、柳杉林、山櫻花林。終點的休閒平臺可眺望銅山上臺灣最大面積的山毛櫸原始林，秋天黃葉耀金，常有遊客慕名而來。",
    "url": "https://recreation.forest.gov.tw/Trail/RT?tr_id=013"
  },
  {
    "id": "forestry-014",
    "source": "forestry",
    "name": "翠峰湖環山步道",
    "difficulty": 2,
    "difficulty_label": "輕鬆",
    "family_friendly": false,
    "length_km": 3.95,
    "alt_high": 2000.0,
    "alt_low": 1840.0,
    "ascent": 160.0,
    "pave": "土石路、碎石路、棧橋、階梯",
    "tour": "半天",
    "best_season": "四季皆宜",
    "region": "宜蘭縣",
    "position": "宜蘭縣南澳鄉",
    "system": "中央山脈脊樑國家步道系統",
    "admin": "宜蘭分署",
    "admin_phone": "森林育樂科:(03)9545114",
    "permit": "無",
    "transport": {
      "car": 1,
      "m_bus": 0,
      "l_bus": 0
    },
    "entrances": [
      {
        "lat": 24.51284,
        "lon": 121.600599,
        "height": 1837.0,
        "memo": "翠峰景觀道路15.5公里"
      },
      {
        "lat": 24.510813,
        "lon": 121.608671,
        "height": 1843.0,
        "memo": "翠峰湖入口"
      }
    ],
    "lat": 24.51284,
    "lon": 121.600599,
    "guide": "翠峰湖環山步道環繞著臺灣最大的高山湖泊，循著昔日運材軌道路線整建而成，提供春浴新綠、夏洗雨霧、秋賞紅葉、冬觀白雪的四季體驗。翠峰湖海拔1840公尺，雨季時湖面達25公頃，為臺灣最大的高山湖泊，晨昏變化萬千，四季風情各異。 ",
    "url": "https://recreation.forest.gov.tw/Trail/RT?tr_id=014"
  },
  {
    "id": "forestry-016",
    "source": "forestry",
    "name": "茂興懷舊步道",
    "difficulty": 1,
    "difficulty_label": "親子",
    "family_friendly": true,
    "length_km": 1.6,
    "alt_high": 1950.0,
    "alt_low": 1900.0,
    "ascent": 50.0,
    "pave": "土石路、木棧道",
    "tour": "半天",
    "best_season": "四季皆宜",
    "region": "宜蘭縣",
    "position": "宜蘭縣大同鄉",
    "system": "中央山脈脊樑國家步道系統",
    "admin": "宜蘭分署",
    "admin_phone": "森林育樂科:(03)9545114",
    "permit": "無",
    "transport": {
      "car": 0,
      "m_bus": 0,
      "l_bus": 0
    },
    "entrances": [
      {
        "lat": 24.478458,
        "lon": 121.536084,
        "height": 1887.0,
        "memo": "茂興月台"
      },
      {
        "lat": 24.479545,
        "lon": 121.527446,
        "height": 1907.0,
        "memo": null
      }
    ],
    "lat": 24.478458,
    "lon": 121.536084,
    "guide": "茂興懷舊步道起點為太平山蹦蹦車茂興月臺站，沿舊蹦蹦車軌道整建，坡度平緩，全程有完善的休憩設施與導覽解說牌，遊客可選擇步道主線、上環線、下環線不同的路線搭配。這條日治時期興建的「古運材軌道」，蜿蜒於紅檜、臺灣扁柏、柳杉林間，步道兩旁則滿佈著耐溼蔭的小林木、蕨類與地被植物；沿途穿過林間、繞過山壁、越過水澗，而古樸的鐵軌與工寮遺跡則見證太平山林木盛產的歲月。",
    "url": "https://recreation.forest.gov.tw/Trail/RT?tr_id=016"
  },
  {
    "id": "forestry-018",
    "source": "forestry",
    "name": "鐵杉林自然步道",
    "difficulty": 2,
    "difficulty_label": "輕鬆",
    "family_friendly": true,
    "length_km": 1.3,
    "alt_high": 2180.0,
    "alt_low": 2000.0,
    "ascent": 180.0,
    "pave": "木棧道、土石路、階梯",
    "tour": "半天",
    "best_season": "四季皆宜",
    "region": "宜蘭縣",
    "position": "宜蘭縣南澳鄉",
    "system": "中央山脈脊樑國家步道系統",
    "admin": "宜蘭分署",
    "admin_phone": "森林育樂科:(03)9545114",
    "permit": "無",
    "transport": {
      "car": 0,
      "m_bus": 0,
      "l_bus": 0
    },
    "entrances": [
      {
        "lat": 24.496795,
        "lon": 121.526097,
        "height": 2189.0,
        "memo": "和平60林班"
      },
      {
        "lat": 24.495514,
        "lon": 121.533433,
        "height": 2027.0,
        "memo": "鎮南宮旁"
      }
    ],
    "lat": 24.496795,
    "lon": 121.526097,
    "guide": "鐵杉林自然步道位處中海拔的針葉林、闊葉林過度帶，因地勢高聳且面迎洋流，致水氣凝聚，終年雲霧瀰漫，宛如人間仙境，亦為太平山莊的水源地。沿途古木參天、蓊鬱蔽日、空氣氤氳。步道入口在太平山莊上方的檜木原始林步道後方，因此必經山莊的四百階中央階梯，兩旁植滿長年楓紅的紫葉槭，是條絕美的紅色隧道。途中有密集的原始紅檜與臺灣扁柏，或俯或倒的巨木造就不少樹洞奇景，盤根錯節，姿態變化多端。",
    "url": "https://recreation.forest.gov.tw/Trail/RT?tr_id=018"
  },
  {
    "id": "forestry-019",
    "source": "forestry",
    "name": "見晴懷古步道",
    "difficulty": 1,
    "difficulty_label": "親子",
    "family_friendly": true,
    "length_km": 0.9,
    "alt_high": 2000.0,
    "alt_low": 1890.0,
    "ascent": 110.0,
    "pave": "碎石路、木棧道、階梯",
    "tour": "半天",
    "best_season": "四季皆宜",
    "region": "宜蘭縣",
    "position": "宜蘭縣大同鄉",
    "system": "中央山脈脊樑國家步道系統",
    "admin": "宜蘭分署",
    "admin_phone": "森林育樂科:(03)9545114",
    "permit": "無",
    "transport": {
      "car": 1,
      "m_bus": 1,
      "l_bus": 1
    },
    "entrances": [
      {
        "lat": 24.505409,
        "lon": 121.525758,
        "height": 1896.0,
        "memo": "運材軌道"
      },
      {
        "lat": 24.498756,
        "lon": 121.522958,
        "height": 1929.0,
        "memo": null
      }
    ],
    "lat": 24.505409,
    "lon": 121.525758,
    "guide": "步道全長0.9公里，沿路坡度平緩且設有休息用的木椅，老少咸宜。一走入見晴古道，即可看到舊時太平山運送木材之森林鐵路鐵軌，景色清麗幽美，蕨類與披上苔蘚的林木環繞，帶來涼爽潮濕的空氣。從一進入步道即偶有展望點，天氣好時可眺望蘭陽平原及聖稜線，午後易出現瑰麗雲海。後段可見之懸空架高鐵路，人工精巧及時間流逝的痕跡交映，引人懷古之幽情。",
    "url": "https://recreation.forest.gov.tw/Trail/RT?tr_id=019"
  },
  {
    "id": "forestry-020",
    "source": "forestry",
    "name": "鳩之澤自然步道",
    "difficulty": 2,
    "difficulty_label": "輕鬆",
    "family_friendly": true,
    "length_km": 1.2,
    "alt_high": 700.0,
    "alt_low": 520.0,
    "ascent": 180.0,
    "pave": "碎石路、木棧道階梯",
    "tour": "半天",
    "best_season": "四季皆宜",
    "region": "宜蘭縣",
    "position": "宜蘭縣大同鄉",
    "system": "中央山脈脊樑國家步道系統",
    "admin": "宜蘭分署",
    "admin_phone": "森林育樂科:(03)9545114",
    "permit": "無",
    "transport": {
      "car": 1,
      "m_bus": 1,
      "l_bus": 1
    },
    "entrances": [
      {
        "lat": 24.546653,
        "lon": 121.507037,
        "height": 520.0,
        "memo": "鳩之澤吊橋"
      }
    ],
    "lat": 24.546653,
    "lon": 121.507037,
    "guide": "步道位於太平山森林遊樂區內的鳩之澤區內，步道與鳩之澤溫泉隔著多望溪，以多望吊橋相通。溫和的氣候、充沛的雨量以及河谷地形，孕育出豐富多樣的生態，沿途有完善的休憩設施；因群山環繞、多望溪穿越，而形成澤地，加以棲息鳥類繁多，鳥鳴聲不絕於耳，而得其名。 ",
    "url": "https://recreation.forest.gov.tw/Trail/RT?tr_id=020"
  },
  {
    "id": "forestry-021",
    "source": "forestry",
    "name": "望洋山步道",
    "difficulty": 2,
    "difficulty_label": "輕鬆",
    "family_friendly": true,
    "length_km": 1.2,
    "alt_high": 2050.0,
    "alt_low": 1880.0,
    "ascent": 170.0,
    "pave": "土石路、木棧道",
    "tour": "半天",
    "best_season": "全年",
    "region": "宜蘭縣",
    "position": "宜蘭縣南澳鄉",
    "system": "中央山脈脊樑國家步道系統",
    "admin": "宜蘭分署",
    "admin_phone": "森林育樂科:(03)9545114",
    "permit": "無",
    "transport": {
      "car": 1,
      "m_bus": 0,
      "l_bus": 0
    },
    "entrances": [
      {
        "lat": 24.510189,
        "lon": 121.608993,
        "height": 1880.0,
        "memo": null
      },
      {
        "lat": 24.511128,
        "lon": 121.60887,
        "height": 1873.0,
        "memo": null
      },
      {
        "lat": 24.511116,
        "lon": 121.616162,
        "height": 2043.0,
        "memo": null
      }
    ],
    "lat": 24.510189,
    "lon": 121.608993,
    "guide": "望洋山標高2,050公尺，步道終點有一景觀平臺，視野佳，可看到南澳北溪侵蝕而成的山谷，也是觀賞日出及雲海的好地點，天色全亮前，還可欣賞蘭陽平原夜景。在望洋山步道眺望太平洋，天氣晴朗時，連龜山島也清晰可辨。",
    "url": "https://recreation.forest.gov.tw/Trail/RT?tr_id=021"
  },
  {
    "id": "forestry-022",
    "source": "forestry",
    "name": "朝陽步道",
    "difficulty": 1,
    "difficulty_label": "親子",
    "family_friendly": true,
    "length_km": 2.2,
    "alt_high": 182.0,
    "alt_low": 0.0,
    "ascent": 182.0,
    "pave": "枕木階梯、土徑",
    "tour": "半天",
    "best_season": "四季皆宜",
    "region": "宜蘭縣",
    "position": "宜蘭縣蘇澳鎮",
    "system": "中央山脈脊樑國家步道系統",
    "admin": "宜蘭分署",
    "admin_phone": "(03)9981060",
    "permit": "無",
    "transport": {
      "car": 1,
      "m_bus": 1,
      "l_bus": 1
    },
    "entrances": [
      {
        "lat": 24.459129,
        "lon": 121.809699,
        "height": 11.0,
        "memo": "朝陽路105巷"
      },
      {
        "lat": 24.455928,
        "lon": 121.817303,
        "height": 182.0,
        "memo": "龜山(三角點)"
      },
      {
        "lat": 24.460391,
        "lon": 121.815093,
        "height": 10.0,
        "memo": "大南澳圳第一幹線"
      },
      {
        "lat": 24.4612,
        "lon": 121.819083,
        "height": 10.0,
        "memo": "南澳漁港旁"
      }
    ],
    "lat": 24.459129,
    "lon": 121.809699,
    "guide": "朝陽步道位於宜蘭縣南澳地區的龜山山丘上；龜山為朝陽社區南側的獨立山頭，東臨花東海岸，西接丘陵起伏之農漁村落，遠遠望去，好似一隻海龜停泊山海之間，遂得其名。 \r\n\r\n步道是早年先民入山種植作物的主要山徑，沿途可由步步登高的四個觀景臺俯瞰南澳漁港，遙望蘇花海岸、烏石鼻岬、定情湖、鴛鴦山、神秘海灘，一路有浪潮與海風陪伴，十分愜意。\r\n\r\n可欣賞難得一見廣達7公頃的大頭茶純林及百年老梅樹。而登龜山賞日出、聽濤聲更是漫步朝陽步道最愜意的享受。\r\n",
    "url": "https://recreation.forest.gov.tw/Trail/RT?tr_id=022"
  },
  {
    "id": "forestry-023",
    "source": "forestry",
    "name": "東滿步道",
    "difficulty": 2,
    "difficulty_label": "輕鬆",
    "family_friendly": false,
    "length_km": 7.8,
    "alt_high": 1130.0,
    "alt_low": 500.0,
    "ascent": 630.0,
    "pave": "土路面、木棧道、木階梯",
    "tour": "一天",
    "best_season": "四季皆宜",
    "region": "桃園市",
    "position": "桃園市復興區；新北市三峽區",
    "system": "中央山脈脊樑國家步道系統",
    "admin": "新竹分署",
    "admin_phone": "森林育樂科:(03)5224163#240;森林育樂科:(03)5224163#243",
    "permit": "無",
    "transport": {
      "car": 1,
      "m_bus": 1,
      "l_bus": 1
    },
    "entrances": [
      {
        "lat": 24.814769,
        "lon": 121.41145,
        "height": null,
        "memo": "東眼山端"
      },
      {
        "lat": 24.819452,
        "lon": 121.449956,
        "height": null,
        "memo": "滿月圓端"
      }
    ],
    "lat": 24.814769,
    "lon": 121.41145,
    "guide": "往來於東眼山與滿月圓兩處國家森林遊樂區之間的健行路徑，自海拔870公尺的東眼山林道終點開始，越過北插天山與東眼山間海拔1,130公尺的鞍部，再直下往海拔500尺的滿月圓瀑布區；主要步道是利用昔日的台車道、木馬道，再與滿月圓往北插天山登山步道連接而成。屬中低海拔常綠闊葉林的楠櫧林帶，沿途針、闊葉樹林交錯，林相鬱閉，孕育豐富多樣的鳥類、昆蟲，加上雲瀑、溪流、瀑布…等自然景觀，是北台灣四季宜人的健行步道。",
    "url": "https://recreation.forest.gov.tw/Trail/RT?tr_id=023"
  },
  {
    "id": "forestry-024",
    "source": "forestry",
    "name": "福巴越嶺國家步道",
    "difficulty": 3,
    "difficulty_label": "一般",
    "family_friendly": false,
    "length_km": 18.0,
    "alt_high": 1666.0,
    "alt_low": 430.0,
    "ascent": 1236.0,
    "pave": "原始山徑",
    "tour": "一天",
    "best_season": "四季皆宜",
    "region": "新北市",
    "position": "新北市烏來區；桃園市復興區華陵里",
    "system": "中央山脈脊樑國家步道系統",
    "admin": "新竹分署",
    "admin_phone": "自然保留區申請-自然保育科:(03)5224163#316;其餘步道資訊-森林育樂科:(03)5224163#240;其餘步道資訊-森林育樂科:(03)5224163#243",
    "permit": "無",
    "transport": {
      "car": 1,
      "m_bus": 1,
      "l_bus": 0
    },
    "entrances": [
      {
        "lat": 24.711475,
        "lon": 121.433546,
        "height": null,
        "memo": "拉拉山巨木區"
      },
      {
        "lat": 24.775493,
        "lon": 121.5038,
        "height": null,
        "memo": "烏來區福山里"
      }
    ],
    "lat": 24.711475,
    "lon": 121.433546,
    "guide": "福巴越嶺古道從烏來福山到巴陵拉拉山，整個路徑貫穿拉拉山巨木區及插天山自然保留區，沿線有許多紅檜巨木，也是野生動物生活的重要棲地環境，物種豐富多樣。古道為早年泰雅人狩獵、通婚、訪親的社路，日治時期設隘勇線、作為山地警備道路，至今仍留有駐在所的遺跡。",
    "url": "https://recreation.forest.gov.tw/Trail/RT?tr_id=024"
  },
  {
    "id": "forestry-025",
    "source": "forestry",
    "name": "北插天山登山步道",
    "difficulty": 3,
    "difficulty_label": "一般",
    "family_friendly": false,
    "length_km": 10.0,
    "alt_high": 1727.0,
    "alt_low": 1130.0,
    "ascent": 597.0,
    "pave": "原始山徑",
    "tour": "一天以上",
    "best_season": "四季皆宜",
    "region": "桃園市",
    "position": "桃園市復興區",
    "system": "中央山脈脊樑國家步道系統",
    "admin": "新竹分署",
    "admin_phone": "森林育樂科:(03)5224163#240;森林育樂科:(03)5224163#243",
    "permit": "無",
    "transport": {
      "car": 0,
      "m_bus": 0,
      "l_bus": 0
    },
    "entrances": [
      {
        "lat": 24.790372,
        "lon": 121.440891,
        "height": null,
        "memo": "東滿步道東眼山與滿月圓遊樂區交界處"
      }
    ],
    "lat": 24.790372,
    "lon": 121.440891,
    "guide": "北插天山又稱為塔開山，是雪山山脈北段著名的中級山，是大漢溪支流宇內溪的源頭，地處桃園市復興區義盛村。\r\n\r\n山形峻峭挺拔，又因為地處雲務帶，每當山嵐湧起，如一倒插天際的樣貌，得名「插天山」。 溫帶氣候的山林，孕育著無數令人嘆為觀止的神木，也造就出大片山毛櫸純林。春夏，綠油油的森林裡，鳥語啁啾；深秋，山毛櫸的葉片轉為金黃，隨風搖曳、緩緩落下，美不勝收；隆冬，林間銀白的霧淞和遠方白靄靄的聖稜線，更是一絕。\r\n",
    "url": "https://recreation.forest.gov.tw/Trail/RT?tr_id=025"
  },
  {
    "id": "forestry-026",
    "source": "forestry",
    "name": "霞喀羅國家步道",
    "difficulty": 2,
    "difficulty_label": "輕鬆",
    "family_friendly": false,
    "length_km": 23.0,
    "alt_high": 1900.0,
    "alt_low": 1600.0,
    "ascent": 300.0,
    "pave": "原始山徑",
    "tour": "一天",
    "best_season": "四季皆宜",
    "region": "新竹縣",
    "position": "新竹縣尖石鄉、五峰鄉",
    "system": "中央山脈脊樑國家步道系統",
    "admin": "新竹分署",
    "admin_phone": "森林育樂科:(03)5224163#243;森林育樂科:(03)5224163#240",
    "permit": "無",
    "transport": {
      "car": 1,
      "m_bus": 0,
      "l_bus": 0
    },
    "entrances": [
      {
        "lat": 24.562001,
        "lon": 121.169288,
        "height": null,
        "memo": "五峰鄉石鹿端"
      },
      {
        "lat": 24.588358,
        "lon": 121.252375,
        "height": null,
        "memo": "尖石鄉養老端"
      }
    ],
    "lat": 24.562001,
    "lon": 121.169288,
    "guide": "Syakaro霞喀羅為泰雅族語的烏心石，因山區盛產此樹而得名。古道橫跨新竹縣五峰鄉、尖石鄉，是早期當地部落的聯外交通要道。 霞喀羅國家步道是一處具歷史與美景的夢幻級古道，沿線可看見日治時期，日人為討伐尖石、五峰一帶部落修築之駐在所、電線杆、碉堡、紀念碑、土牆及砲台遺址，步行其間，在解說牌的介紹之下，可以了解這一條有著可歌可泣的歷史古道背後的許多故事。 \r\n\r\n沿途景觀秀麗，吊橋、山澗林相美不勝收，栗園的竹林與馬鞍的楓香林，尤其迷人，讓人忍不住駐足流連。而步道有多處極佳的賞楓點，入秋時可見滿山火紅的楓樹林，是知名的賞楓景點。",
    "url": "https://recreation.forest.gov.tw/Trail/RT?tr_id=026"
  },
  {
    "id": "forestry-027",
    "source": "forestry",
    "name": "大霸尖山登山步道",
    "difficulty": 3,
    "difficulty_label": "一般",
    "family_friendly": false,
    "length_km": 11.8,
    "alt_high": 3380.0,
    "alt_low": 1800.0,
    "ascent": 1580.0,
    "pave": "土路面、木棧道、砌石階梯",
    "tour": "一天以上",
    "best_season": "四季皆宜",
    "region": "新竹縣",
    "position": "新竹縣尖石鄉；苗栗縣泰安鄉",
    "system": "中央山脈脊樑國家步道系統",
    "admin": "新竹分署",
    "admin_phone": "森林育樂科:(03)5224163#245;森林育樂科:(03)5224163#243",
    "permit": "無",
    "transport": {
      "car": 0,
      "m_bus": 0,
      "l_bus": 0
    },
    "entrances": [
      {
        "lat": 24.483223,
        "lon": 121.193038,
        "height": null,
        "memo": "馬達拉溪登山口"
      }
    ],
    "lat": 24.483223,
    "lon": 121.193038,
    "guide": "大霸尖山海拔3492公尺，屬於雪山山脈，是聖稜線端點之一，因山勢磅礡奇特，而有「世紀奇峰」之美譽，自古是泰雅、賽夏兩原住民族的聖山；其山形突出、四面懸壁，外貌有如大酒桶，又稱「熬酒桶山」或「酒桶山」，與中央尖山、達芬尖山，合稱為「台灣三尖」。 \r\n\r\n大霸尖山步道可登加利山、伊澤山、大霸尖山、小霸尖山共四座百岳。 九九山莊海拔約2700公尺，是大霸步道上重要的前進基地，也是舒適的住宿地點，更是賞觀霧地區、看夕陽、觀星空的好地方。\r\n",
    "url": "https://recreation.forest.gov.tw/Trail/RT?tr_id=027"
  },
  {
    "id": "forestry-028",
    "source": "forestry",
    "name": "桶後越嶺步道",
    "difficulty": 2,
    "difficulty_label": "輕鬆",
    "family_friendly": false,
    "length_km": 7.0,
    "alt_high": 730.0,
    "alt_low": 450.0,
    "ascent": 280.0,
    "pave": "原始山徑",
    "tour": "一天",
    "best_season": "四季皆宜",
    "region": "新北市",
    "position": "新北市烏來區",
    "system": "中央山脈脊樑國家步道系統",
    "admin": "新竹分署",
    "admin_phone": "森林育樂科:(03)5224163#240;森林育樂科:(03)5224163#243",
    "permit": "無",
    "transport": {
      "car": 0,
      "m_bus": 0,
      "l_bus": 0
    },
    "entrances": [
      {
        "lat": 24.836879,
        "lon": 121.648424,
        "height": null,
        "memo": "烏來桶後端"
      },
      {
        "lat": 24.816796,
        "lon": 121.689756,
        "height": null,
        "memo": "宜蘭礁溪端"
      }
    ],
    "lat": 24.836879,
    "lon": 121.648424,
    "guide": "桶後越嶺步道是一條穿越雪山山脈，從大台北直接進入宜蘭的越嶺步道，而且難度不高，半天就能走完。此外，桶後溪的溪流地形豐富，不同的區域呈現全然不同的風景，據說「不至桶後，不知台北溪流之美。」 \r\n\r\n桶後越嶺步道是烏來山區三大古道之一，是早期泰雅族由雪山山脈地區北上打獵遷移走出的路徑，現已成為登山健行的熱門路線。\r\n",
    "url": "https://recreation.forest.gov.tw/Trail/RT?tr_id=028"
  },
  {
    "id": "forestry-030",
    "source": "forestry",
    "name": "紅河谷越嶺步道",
    "difficulty": 2,
    "difficulty_label": "輕鬆",
    "family_friendly": false,
    "length_km": 15.0,
    "alt_high": 920.0,
    "alt_low": 110.0,
    "ascent": 810.0,
    "pave": "階梯.原始山徑",
    "tour": null,
    "best_season": null,
    "region": "新北市",
    "position": "新北市烏來區.三峽區",
    "system": "中央山脈脊樑國家步道系統",
    "admin": "新竹分署",
    "admin_phone": "森林育樂科:(03)5224163#240;森林育樂科:(03)5224163#243",
    "permit": "無",
    "transport": {
      "car": 1,
      "m_bus": 0,
      "l_bus": 0
    },
    "entrances": [
      {
        "lat": 24.853681,
        "lon": 121.466881,
        "height": null,
        "memo": "三峽熊空"
      },
      {
        "lat": 24.884316,
        "lon": 121.538802,
        "height": null,
        "memo": "烏來加九寮"
      }
    ],
    "lat": 24.853681,
    "lon": 121.466881,
    "guide": "紅河谷越嶺步道是早期往來烏來加九寮與三峽熊空的路徑，步道沿著熊空溪與加九寮溪而行。",
    "url": "https://recreation.forest.gov.tw/Trail/RT?tr_id=030"
  },
  {
    "id": "forestry-031",
    "source": "forestry",
    "name": "哈盆越嶺步道",
    "difficulty": 2,
    "difficulty_label": "輕鬆",
    "family_friendly": false,
    "length_km": 7.5,
    "alt_high": 756.0,
    "alt_low": 450.0,
    "ascent": 306.0,
    "pave": "土路面、木棧道、砌石階梯",
    "tour": "一天",
    "best_season": "四季皆宜",
    "region": "新北市",
    "position": "新北市烏來區",
    "system": "中央山脈脊樑國家步道系統",
    "admin": "新竹分署",
    "admin_phone": "森林育樂科:(03)5224163#240;森林育樂科:(03)5224163#243",
    "permit": "無",
    "transport": {
      "car": 0,
      "m_bus": 0,
      "l_bus": 0
    },
    "entrances": [
      {
        "lat": 24.775868,
        "lon": 121.513037,
        "height": null,
        "memo": "烏來福山端"
      },
      {
        "lat": 24.775868,
        "lon": 121.513037,
        "height": null,
        "memo": "宜蘭員山端"
      }
    ],
    "lat": 24.775868,
    "lon": 121.513037,
    "guide": "哈盆越嶺步道聯絡新北市與宜蘭兩地，歩道沿南勢溪而上往露門溪、哈盆溪前去。整建的步道止於露門溪交會地，再原路折返，來回約14公里，費時6～7小時。步道下方為南勢溪，林相為闊葉樹群落，著生的鳥巢蕨、書帶蕨等交織成亞熱帶森林景緻。步道終點仍留有警備道遺址。",
    "url": "https://recreation.forest.gov.tw/Trail/RT?tr_id=031"
  },
  {
    "id": "forestry-034",
    "source": "forestry",
    "name": "塔曼山步道",
    "difficulty": 2,
    "difficulty_label": "輕鬆",
    "family_friendly": false,
    "length_km": 3.4,
    "alt_high": 2130.0,
    "alt_low": 2000.0,
    "ascent": 130.0,
    "pave": "原始山徑",
    "tour": "半天",
    "best_season": "四季皆宜",
    "region": "桃園市",
    "position": "桃園市復興區",
    "system": "中央山脈脊樑國家步道系統",
    "admin": "新竹分署",
    "admin_phone": "森林育樂科:(03)5224163#240;森林育樂科:(03)5224163#243",
    "permit": "無",
    "transport": {
      "car": 1,
      "m_bus": 0,
      "l_bus": 0
    },
    "entrances": [
      {
        "lat": 24.698727,
        "lon": 121.426949,
        "height": null,
        "memo": "桃園復興區巴陵"
      }
    ],
    "lat": 24.698727,
    "lon": 121.426949,
    "guide": "塔曼山為新北市第一高峰，海拔2130公尺。沿途蓊鬱茂密，樹形奇特，巨木參天，倒木亦多，可見證山林榮枯。步道多為盤根錯節的樹根及土石路面，山頂腹地不大且無展望。",
    "url": "https://recreation.forest.gov.tw/Trail/RT?tr_id=034"
  },
  {
    "id": "forestry-035",
    "source": "forestry",
    "name": "北得拉曼巨木步道",
    "difficulty": 3,
    "difficulty_label": "一般",
    "family_friendly": false,
    "length_km": 2.6,
    "alt_high": 1300.0,
    "alt_low": 900.0,
    "ascent": 400.0,
    "pave": "原始山徑，偶攀爬岩壁、木梯",
    "tour": "一天",
    "best_season": "四季皆宜",
    "region": "新竹縣",
    "position": "新竹縣尖石鄉",
    "system": "中央山脈脊樑國家步道系統",
    "admin": "新竹分署",
    "admin_phone": "森林育樂科:(03)5224163#243;森林育樂科:(03)5224163#240",
    "permit": "無",
    "transport": {
      "car": 1,
      "m_bus": 0,
      "l_bus": 0
    },
    "entrances": [
      {
        "lat": 24.738818,
        "lon": 121.279835,
        "height": null,
        "memo": "尖石水田"
      }
    ],
    "lat": 24.738818,
    "lon": 121.279835,
    "guide": "北得拉曼是部落裡泰雅人視之為「聖域」的傳統狩獵領域，為台灣少見海拔低於1,000公尺以下的紅檜林。林相隨海拔高度變化，從人工造林地、天然闊葉林區及檜木林帶，多樣的植物孕育豐富的動物，步道上可見動物丟棄的果實，尤其闊葉林中以飛鼠最常見，成為部落發展生態旅遊的要角，沿途有迴音谷、小瀑布等景點，1.6公里處下行往巨木群的步道為一循環線，沿途可欣賞四株紅檜巨木，號稱「四大天王」。",
    "url": "https://recreation.forest.gov.tw/Trail/RT?tr_id=035"
  },
  {
    "id": "forestry-036",
    "source": "forestry",
    "name": "馬里光瀑布步道",
    "difficulty": 1,
    "difficulty_label": "親子",
    "family_friendly": true,
    "length_km": 0.6,
    "alt_high": 1400.0,
    "alt_low": 1350.0,
    "ascent": 50.0,
    "pave": "石砌",
    "tour": null,
    "best_season": null,
    "region": "新竹縣",
    "position": "新竹縣尖石鄉",
    "system": "中央山脈脊樑國家步道系統",
    "admin": "新竹分署",
    "admin_phone": "森林育樂科:(03)5224163#243;森林育樂科:(03)5224163#240",
    "permit": "無",
    "transport": {
      "car": 1,
      "m_bus": 1,
      "l_bus": 0
    },
    "entrances": [
      {
        "lat": 24.643508,
        "lon": 121.334517,
        "height": null,
        "memo": "尖石玉峰"
      }
    ],
    "lat": 24.643508,
    "lon": 121.334517,
    "guide": "馬里光瀑布步道短小精緻，平緩好走，沿途植被豐富，俯瞰溪谷在翠綠山巒之中蜿蜒，步行10分鐘即可聽到氣勢磅礡的水聲，一條白練從天而降，瀑布高約80公尺、寬約30公尺，注入碧綠深潭之中，聲勢浩大、雄偉壯觀，觀景平台設有長椅，坐在這裡欣賞瀑布一瀉千里的英姿，享受水氣氤氳，聆聽淙淙流水聲，愜意怡人。",
    "url": "https://recreation.forest.gov.tw/Trail/RT?tr_id=036"
  },
  {
    "id": "forestry-038",
    "source": "forestry",
    "name": "鎮西堡巨木群步道",
    "difficulty": 2,
    "difficulty_label": "輕鬆",
    "family_friendly": false,
    "length_km": 4.6,
    "alt_high": 1927.0,
    "alt_low": 1628.0,
    "ascent": 299.0,
    "pave": "原始山徑",
    "tour": "一天",
    "best_season": "四季皆宜",
    "region": "新竹縣",
    "position": "新竹縣尖石鄉",
    "system": "中央山脈脊樑國家步道系統",
    "admin": "新竹分署",
    "admin_phone": "森林育樂科:(03)5224163#243;森林育樂科:(03)5224163#240",
    "permit": "無",
    "transport": {
      "car": 0,
      "m_bus": 0,
      "l_bus": 0
    },
    "entrances": [
      {
        "lat": 24.55411,
        "lon": 121.292799,
        "height": null,
        "memo": "尖石鎮西堡"
      }
    ],
    "lat": 24.55411,
    "lon": 121.292799,
    "guide": "泰雅語稱鎮西堡部落為Cinsbu，意即「清晨熟睡中，陽光已經朗照大地，整天日曬不絕、直到黃昏，白晝溫暖、夜晚寒冷，這是個病蟲絕跡，作物生長良好的土地。」這裡孕育了全台最大的檜木原始林，隔著塔克金溪與司馬庫斯巨木群互望，東向宜蘭鴛鴦湖一帶，與棲蘭檜木原生林連成一片。 \r\n\r\n此處最知名的神木是擁有男、女性生殖器象徵的「亞當神木」及「夏娃神木」，維妙維肖的樹型令人印象深刻；此外，國王神木身形龐大、體態魁武，為全台灣神木排行榜第17名。\r\n",
    "url": "https://recreation.forest.gov.tw/Trail/RT?tr_id=038"
  },
  {
    "id": "forestry-042",
    "source": "forestry",
    "name": "鳥嘴山登山步道",
    "difficulty": 2,
    "difficulty_label": "輕鬆",
    "family_friendly": false,
    "length_km": 3.5,
    "alt_high": 1437.0,
    "alt_low": 600.0,
    "ascent": 837.0,
    "pave": null,
    "tour": "一天",
    "best_season": "四季皆宜",
    "region": "苗栗縣",
    "position": "苗栗縣泰安鄉",
    "system": "中央山脈脊樑國家步道系統",
    "admin": "新竹分署",
    "admin_phone": "森林育樂科:(03)5224163#243;森林育樂科:(03)5224163#240",
    "permit": "無",
    "transport": {
      "car": 1,
      "m_bus": 0,
      "l_bus": 0
    },
    "entrances": [
      {
        "lat": 24.470144,
        "lon": 120.97663,
        "height": null,
        "memo": "泰安虎山"
      }
    ],
    "lat": 24.470144,
    "lon": 120.97663,
    "guide": "地處汶水溪南岸因山形有如巨鷹，山麓兩翼如翅，山頂突出的尖峰如鳥嘴，故得名，與鄰近的橫龍山、虎子山，形成鳳、 龍、虎三獸磐據的態勢，故有「水雲三星」之稱。鳥嘴山又稱上島山，因特殊的地質與地形結構，單程3.3公里的路程要爬昇海拔837公尺，所以步道陡峭、形勢險峻。沿途多為衫木造林及闊葉木林，山頂視野良好，可飽覽加里山、哈堪尼山、橫龍山、及虎子山之山勢。 ",
    "url": "https://recreation.forest.gov.tw/Trail/RT?tr_id=042"
  },
  {
    "id": "forestry-043",
    "source": "forestry",
    "name": "加里山登山步道",
    "difficulty": 3,
    "difficulty_label": "一般",
    "family_friendly": false,
    "length_km": 6.8,
    "alt_high": 2220.0,
    "alt_low": 1350.0,
    "ascent": 870.0,
    "pave": "觀賞大、小雪山與馬拉邦山山系",
    "tour": "一天",
    "best_season": "四季皆宜",
    "region": "苗栗縣",
    "position": "苗栗縣南庄鄉",
    "system": "中央山脈脊樑國家步道系統",
    "admin": "新竹分署",
    "admin_phone": "森林育樂科:(03)5224163#243;森林育樂科:(03)5224163#240",
    "permit": "無",
    "transport": {
      "car": 1,
      "m_bus": 0,
      "l_bus": 0
    },
    "entrances": [
      {
        "lat": 24.527098,
        "lon": 121.024674,
        "height": null,
        "memo": "南庄鹿場"
      }
    ],
    "lat": 24.527098,
    "lon": 121.024674,
    "guide": "加里山登山步道聯絡南庄蓬萊、風美及鹿場，沿途為柳杉人工造林及闊葉林，林下植被多以蕨類和耐蔭性物種為主，風美溪從中穿越，動植物生態豐富。\r\n\r\n沿途可見伐木時期的台車鐵軌，見證當年興盛的林業，且加里山為中北台名山，為一等三角點，山頂視野遼闊，可遠眺氣勢磅礡的雪山聖稜線和鄰近的鹿場大山。 \r\n",
    "url": "https://recreation.forest.gov.tw/Trail/RT?tr_id=043"
  },
  {
    "id": "forestry-044",
    "source": "forestry",
    "name": "五指山登山步道",
    "difficulty": 2,
    "difficulty_label": "輕鬆",
    "family_friendly": true,
    "length_km": 2.3,
    "alt_high": 1061.0,
    "alt_low": 800.0,
    "ascent": 261.0,
    "pave": "山徑、枕木階梯",
    "tour": "一天",
    "best_season": "四季皆宜",
    "region": "新竹縣",
    "position": "新竹縣北埔鄉",
    "system": "中央山脈脊樑國家步道系統",
    "admin": "新竹分署",
    "admin_phone": "森林育樂科:(03)5224163#243;森林育樂科:(03)5224163#240",
    "permit": "無",
    "transport": {
      "car": 1,
      "m_bus": 1,
      "l_bus": 1
    },
    "entrances": [
      {
        "lat": 24.638302,
        "lon": 121.086384,
        "height": null,
        "memo": "五指山竹林禪寺"
      },
      {
        "lat": 24.640915,
        "lon": 121.095781,
        "height": null,
        "memo": "五指山中指"
      }
    ],
    "lat": 24.638302,
    "lon": 121.086384,
    "guide": "五指山由五座山頭相連並列，宛如五指而得名，在清朝即享有盛名，「淡水廳志」中以「指峰凌霄」來形容山勢險要壯觀，並列為八景之一：日治時期被票選為全台風景十二勝之一。步道沿途遍植柳杉，綠意盎然，林景幽雅，因山勢俊秀靈奇，所以建有許多廟宇，雲光寺、玉皇宮及觀音禪寺等。山頂視野遼闊，峨眉、北埔、新竹、竹北等盡收眼底。",
    "url": "https://recreation.forest.gov.tw/Trail/RT?tr_id=044"
  },
  {
    "id": "forestry-046",
    "source": "forestry",
    "name": "冬瓜山登山步道",
    "difficulty": 2,
    "difficulty_label": "輕鬆",
    "family_friendly": false,
    "length_km": 1.6,
    "alt_high": 1200.0,
    "alt_low": 600.0,
    "ascent": 600.0,
    "pave": "山徑",
    "tour": "一天",
    "best_season": "四季皆宜",
    "region": "苗栗縣",
    "position": "苗栗縣泰安鄉",
    "system": "中央山脈脊樑國家步道系統",
    "admin": "新竹分署",
    "admin_phone": "森林育樂科:(03)5224163#243;森林育樂科:(03)5224163#240",
    "permit": "無",
    "transport": {
      "car": 1,
      "m_bus": 0,
      "l_bus": 0
    },
    "entrances": [
      {
        "lat": 24.459461,
        "lon": 120.96952,
        "height": null,
        "memo": "泰安騰龍"
      }
    ],
    "lat": 24.459461,
    "lon": 120.96952,
    "guide": "冬瓜山登山步道位於俗稱冬瓜山的洗水山上，步道並未修築至冬瓜山頂，而終點為千年櫸木。\r\n\r\n冬瓜山區多人造柳杉林，筆直高聳的杉木林立，森幽鬱閉。春季展新葉、秋季轉黃、紅，冬季落葉後樹形猶如一支大掃把，蔚為特色。山腳邊客家農莊遍植桃、李，每年開花時節，蒼鬱的冬瓜山在一片紅白花海的烘托下，更顯得翠嫩鮮綠。穿梭在林間可窺見遠處的虎山、上島山、加里山，不時也會發現幾棵高頭大馬的九芎、櫸木。\r\n\r\n幾乎垂直的雄偉石壁也是步道一絕，過了大石壁之後會遇到幾段小崩塌和碎石坡，只要小心謹慎，便可安全通過。 來到步道盡頭，千年櫸木赫然矗立在眼前，它的塊頭或許沒有阿里山神木那麼大，卻是目前全台已知最大棵的櫸木，站在它面前，壯漢也顯得嬌小。\r\n",
    "url": "https://recreation.forest.gov.tw/Trail/RT?tr_id=046"
  },
  {
    "id": "forestry-047",
    "source": "forestry",
    "name": "馬那邦山登山步道",
    "difficulty": 2,
    "difficulty_label": "輕鬆",
    "family_friendly": false,
    "length_km": 4.2,
    "alt_high": 1406.0,
    "alt_low": 800.0,
    "ascent": 606.0,
    "pave": "木棧道、碎石路",
    "tour": "一天",
    "best_season": "四季皆宜",
    "region": "苗栗縣",
    "position": "苗栗縣大湖鄉、泰安鄉",
    "system": "中央山脈脊樑國家步道系統",
    "admin": "新竹分署",
    "admin_phone": "森林育樂科:(03)5224163#243;森林育樂科:(03)5224163#240",
    "permit": "無",
    "transport": {
      "car": 1,
      "m_bus": 0,
      "l_bus": 0
    },
    "entrances": [
      {
        "lat": 24.366768,
        "lon": 120.903165,
        "height": null,
        "memo": "大湖上湖"
      },
      {
        "lat": 24.377669,
        "lon": 120.908382,
        "height": null,
        "memo": "大湖東興"
      }
    ],
    "lat": 24.366768,
    "lon": 120.903165,
    "guide": "馬拉邦古道為早年泰雅族北勢群交通往來及狩獵的山徑，日治時代闢為隘勇路，曾發生泰雅族人抗日事件，立有紀念碑。步道經杉木造林地、櫸木植群，四季各有特色，春天的桃花、夏季的綠竹、秋天的楓紅，冬日的寒梅。山頂可遠眺蜿蜒群山的大安溪、大霸尖山及雪山之間的聖稜線。 \r\n\r\n馬那邦山秋夏多雨、冬季乾燥，傳統路徑從上湖登山口進入，到海拔1250公尺左右的古戰場紀念碑，青楓、楓香樹林一路延伸到了岳界所稱「慶榮坡口」，深秋時滿山楓紅。\r\n\r\n天然湖登山口0.7K處為1944年所栽種台灣櫸母樹林，樹葉四季幻化，春吐紅蕊、夏葉翠綠、秋染褐黃、冬枝蕭索，是山區秋賞變葉植物的指標性物種之一。\r\n",
    "url": "https://recreation.forest.gov.tw/Trail/RT?tr_id=047"
  },
  {
    "id": "forestry-048",
    "source": "forestry",
    "name": "橫嶺山步道",
    "difficulty": 2,
    "difficulty_label": "輕鬆",
    "family_friendly": true,
    "length_km": 6.6,
    "alt_high": 1200.0,
    "alt_low": 850.0,
    "ascent": 350.0,
    "pave": "石階、山徑、木棧道",
    "tour": "一天",
    "best_season": "四季皆宜",
    "region": "臺中市",
    "position": "臺中市和平區",
    "system": "中央山脈脊樑國家步道系統",
    "admin": "臺中分署",
    "admin_phone": "森林育樂科:(04)25150855",
    "permit": "無",
    "transport": {
      "car": 1,
      "m_bus": 1,
      "l_bus": 0
    },
    "entrances": [
      {
        "lat": 24.23704,
        "lon": 120.949771,
        "height": 1200.0,
        "memo": "大雪山林道27k隧道"
      },
      {
        "lat": 24.240057,
        "lon": 120.911425,
        "height": 850.0,
        "memo": "大雪山社區研習中心"
      }
    ],
    "lat": 24.23704,
    "lon": 120.949771,
    "guide": "橫嶺山自然步道，是日治時代大雪山社區居民用來搬運木材的木馬道，是當時大雪山林場的木馬古道之一，故又稱為橫嶺山木馬古道，沿途仍留有廢棄的運材木馬及荒廢的燒炭窯等遺跡，林道2.3K處的廢棄工寮僅剩下石頭地基，為當時伐木歷史留下見證。 \r\n\r\n步道全長6.6公里，沿途生態豐富，林相優美，起點為大雪山林道26.5K的橫嶺山隧道口前，終點至大雪山生態教室。前3.5K路況平緩，林木參天，踩踏在鋪滿松針落葉的林徑上，輕鬆好走愜意。3.5K後則較為陡峻且落差較大，一路陡下2000多階以枕木、沙包建構的生態階梯沿木階。4K附近有台灣特有種杜鵑林。若安排原路往返，則有2000多階的上坡，較為吃力，可安排二地接駁較為輕鬆。\r\n",
    "url": "https://recreation.forest.gov.tw/Trail/RT?tr_id=048"
  },
  {
    "id": "forestry-049",
    "source": "forestry",
    "name": "大雪山國家森林遊樂區步道群",
    "difficulty": 1,
    "difficulty_label": "親子",
    "family_friendly": false,
    "length_km": 9.0,
    "alt_high": 2300.0,
    "alt_low": 1800.0,
    "ascent": 500.0,
    "pave": "石階、山徑、木棧道",
    "tour": "一天以上",
    "best_season": "四季皆宜",
    "region": "臺中市",
    "position": "臺中市和平區",
    "system": "中央山脈脊樑國家步道系統",
    "admin": "臺中分署",
    "admin_phone": "森林育樂科:(04)25150855",
    "permit": "無",
    "transport": {
      "car": 1,
      "m_bus": 1,
      "l_bus": 0
    },
    "entrances": [
      {
        "lat": 24.257807,
        "lon": 121.009002,
        "height": 2270.0,
        "memo": "派出所旁出入口"
      }
    ],
    "lat": 24.257807,
    "lon": 121.009002,
    "guide": "大雪山國家森林遊樂區在日治時期為台灣中部地區重要的伐木林場，據說當年此處的大草原風光宛如日本北海道的大雪山景色，因此日本人命名為「大雪山」。從東勢循大雪山林道向上攀升，沿途林相隨著海拔高度變化，逐漸由闊葉林、針闊葉混合林轉變為天然針葉林，由於位處雲霧帶，氣象變化萬千。園區規劃多條步道，隨四季更迭各有其獨特丰采，春夏高山花卉，秋冬變葉景觀；也是觀察星象的最佳地點。",
    "url": "https://recreation.forest.gov.tw/Trail/RT?tr_id=049"
  },
  {
    "id": "forestry-051",
    "source": "forestry",
    "name": "德芙蘭步道",
    "difficulty": 2,
    "difficulty_label": "輕鬆",
    "family_friendly": false,
    "length_km": 3.0,
    "alt_high": 1000.0,
    "alt_low": 700.0,
    "ascent": 300.0,
    "pave": "石階、山徑",
    "tour": "半天",
    "best_season": "春",
    "region": "臺中市",
    "position": "臺中市和平區",
    "system": "中彰山域區域步道系統",
    "admin": "臺中分署",
    "admin_phone": "森林育樂科:(04)25150855",
    "permit": "無",
    "transport": {
      "car": 1,
      "m_bus": 1,
      "l_bus": 0
    },
    "entrances": [
      {
        "lat": 24.178293,
        "lon": 120.977284,
        "height": 700.0,
        "memo": "臺8線29.15K"
      }
    ],
    "lat": 24.178293,
    "lon": 120.977284,
    "guide": "德芙蘭步道位於博愛村松鶴德芙蘭部落後山附近，步行約3小時。步道大部分路段為台電保線道路，沿著東卯山東南面大崩壁裙裾修建，東臨大甲溪；沿途可見陡峭的大岩壁及散落的大、小落岩塊，步道上偶有大石堆疊，得手腳並用攀爬而上；而就地取材的石階，古意盎然。步道沿途可見大葉楠、櫸木及茄苳巨木，還有粗壯的爬藤植物，是步道最大的特色。",
    "url": "https://recreation.forest.gov.tw/Trail/RT?tr_id=051"
  },
  {
    "id": "forestry-052",
    "source": "forestry",
    "name": "八仙山主峰步道",
    "difficulty": 3,
    "difficulty_label": "一般",
    "family_friendly": true,
    "length_km": 6.0,
    "alt_high": 2366.0,
    "alt_low": 1029.0,
    "ascent": 1337.0,
    "pave": "石階、山徑、木棧道",
    "tour": "一天",
    "best_season": "四季皆宜",
    "region": "臺中市",
    "position": "臺中市和平區",
    "system": "中央山脈脊樑國家步道系統",
    "admin": "臺中分署",
    "admin_phone": "森林育樂科:(04)25150855",
    "permit": "無",
    "transport": {
      "car": 1,
      "m_bus": 1,
      "l_bus": 1
    },
    "entrances": [
      {
        "lat": 24.154312,
        "lon": 121.011966,
        "height": 2366.0,
        "memo": "八仙山主峰"
      },
      {
        "lat": 24.188931,
        "lon": 121.013751,
        "height": 1029.0,
        "memo": "八仙山森林遊樂區"
      }
    ],
    "lat": 24.154312,
    "lon": 121.011966,
    "guide": "八仙山因海拔約八千日尺，原擬名「八千山」，之後以較典雅的「八仙山」名之，為谷關七雄之首，以健行的步伐來回約需8小時，步道前半段坡度較陡，上了稜線後較為平緩，全程走在林蔭中，植被由常綠闊葉林進入四季變化明顯的針闊葉混合林，四季景色繽紛多變。",
    "url": "https://recreation.forest.gov.tw/Trail/RT?tr_id=052"
  },
  {
    "id": "forestry-053",
    "source": "forestry",
    "name": "東卯山步道",
    "difficulty": 2,
    "difficulty_label": "輕鬆",
    "family_friendly": true,
    "length_km": 6.7,
    "alt_high": 1690.0,
    "alt_low": 791.0,
    "ascent": 899.0,
    "pave": "石階、攀岩、山徑、木棧道",
    "tour": "一天",
    "best_season": "四季皆宜",
    "region": "臺中市",
    "position": "臺中市和平區",
    "system": "中央山脈脊樑國家步道系統",
    "admin": "臺中分署",
    "admin_phone": "森林育樂科:(04)25150855",
    "permit": "無",
    "transport": {
      "car": 1,
      "m_bus": 1,
      "l_bus": 0
    },
    "entrances": [
      {
        "lat": 24.186018,
        "lon": 120.957872,
        "height": 1691.0,
        "memo": "東卯山"
      },
      {
        "lat": 24.175061,
        "lon": 120.944047,
        "height": 791.0,
        "memo": "谷關大道院"
      }
    ],
    "lat": 24.186018,
    "lon": 120.957872,
    "guide": "東卯山，海拔1,692公尺，谷關七雄排名第五，原為台電之保線道路。沿線風景秀麗，生態資源豐富多樣，登山路徑呈和緩的之字坡向上攀升，寬大好走，是座很容易親近的山。 登頂後腹地寬廣，設有大型微波反射板，視野遼闊，擁有360度絕佳的好風光，天氣良好時除可遠眺松鶴部落外，鳶嘴、稍來、馬崙山、八仙山稜脈、唐麻丹山之山巒美景盡收眼底。",
    "url": "https://recreation.forest.gov.tw/Trail/RT?tr_id=053"
  },
  {
    "id": "forestry-054",
    "source": "forestry",
    "name": "唐麻丹山步道",
    "difficulty": 3,
    "difficulty_label": "一般",
    "family_friendly": false,
    "length_km": 5.1,
    "alt_high": 1305.0,
    "alt_low": 650.0,
    "ascent": 655.0,
    "pave": "石階、山徑、木馬道、木棧道",
    "tour": "一天",
    "best_season": "春",
    "region": "臺中市",
    "position": "臺中市和平區",
    "system": "中央山脈脊樑國家步道系統",
    "admin": "臺中分署",
    "admin_phone": "森林育樂科:(04)25150855",
    "permit": "無",
    "transport": {
      "car": 1,
      "m_bus": 1,
      "l_bus": 0
    },
    "entrances": [
      {
        "lat": 24.164736,
        "lon": 120.957279,
        "height": 654.0,
        "memo": "裡冷部落"
      },
      {
        "lat": 24.166634,
        "lon": 120.967523,
        "height": 773.0,
        "memo": "松鶴部落"
      }
    ],
    "lat": 24.164736,
    "lon": 120.957279,
    "guide": "唐麻丹山步道位於大甲溪南岸，在谷關七雄中排行最末，也是七雄中海拔高度最矮的一座，雖然高度最矮，但由登山口至山頂的落差超過650公尺，仍然是相當挑戰的路線。 唐麻丹山登山口位於裡冷部落，山頂展望為七雄最佳，向東可以眺望八仙山及馬崙山，向西則是白毛山與阿冷山，向北則與東卯山及屋我尾山遙遙相望。往山頂的途中有一條通往蝴蝶谷瀑布的步道，可視體力及時間選擇是否順訪，唐麻丹山步道是谷關七雄中唯一一條具有瀑布景觀的步道。",
    "url": "https://recreation.forest.gov.tw/Trail/RT?tr_id=054"
  },
  {
    "id": "forestry-055",
    "source": "forestry",
    "name": "波津加山步道",
    "difficulty": 3,
    "difficulty_label": "一般",
    "family_friendly": false,
    "length_km": 3.2,
    "alt_high": 1770.0,
    "alt_low": 812.0,
    "ascent": 958.0,
    "pave": "石階、山徑、木棧道",
    "tour": "一天",
    "best_season": "四季皆宜",
    "region": "臺中市",
    "position": "臺中市和平區",
    "system": "中央山脈脊樑國家步道系統",
    "admin": "臺中分署",
    "admin_phone": "森林育樂科:(04)25150855",
    "permit": "無",
    "transport": {
      "car": 1,
      "m_bus": 1,
      "l_bus": 1
    },
    "entrances": [
      {
        "lat": 24.2069,
        "lon": 121.008594,
        "height": 812.0,
        "memo": "捎來步道前段"
      }
    ],
    "lat": 24.2069,
    "lon": 121.008594,
    "guide": "波津加步道位於大甲溪北岸，在谷關七雄中排行第四，昔日為台電保線道路，林徑旁仍能見到倒臥的老舊木製電桿及固定用鋼索。「波津加」名稱的由來據說是因步道坡度陡峭，許多登山者形容其「坡真陡」（閩南語諧音）。由於高低差約1千公尺，全段幾乎都在爬升，來回時間需7～8小時。",
    "url": "https://recreation.forest.gov.tw/Trail/RT?tr_id=055"
  },
  {
    "id": "forestry-056",
    "source": "forestry",
    "name": "屋我尾山步道",
    "difficulty": 3,
    "difficulty_label": "一般",
    "family_friendly": false,
    "length_km": 6.1,
    "alt_high": 1915.0,
    "alt_low": 1796.0,
    "ascent": 119.0,
    "pave": "石階、山徑、木棧道",
    "tour": "一天",
    "best_season": "四季皆宜",
    "region": "臺中市",
    "position": "臺中市和平區",
    "system": "中央山脈脊樑國家步道系統",
    "admin": "臺中分署",
    "admin_phone": "森林育樂科:(04)25150855",
    "permit": "無",
    "transport": {
      "car": 1,
      "m_bus": 1,
      "l_bus": 0
    },
    "entrances": [
      {
        "lat": 24.22659,
        "lon": 120.971653,
        "height": 1915.0,
        "memo": "大雪山林道31.2k"
      },
      {
        "lat": 24.193699,
        "lon": 120.989556,
        "height": 745.0,
        "memo": "麗陽營區十文巷"
      }
    ],
    "lat": 24.22659,
    "lon": 120.971653,
    "guide": "屋我尾山位於大甲溪北岸，為谷關七雄中的老三。步道沿路環境多樣，有杜鵑林，稜線上矮密的風衝林、杉木造林地、針闊混合林與楠櫟林；林下潮濕的枯枝倒木與落葉層上有著成簇之蕈叢。天氣晴朗時，從步道的破空處可遠眺周圍群山。",
    "url": "https://recreation.forest.gov.tw/Trail/RT?tr_id=056"
  },
  {
    "id": "forestry-057",
    "source": "forestry",
    "name": "馬崙山步道",
    "difficulty": 3,
    "difficulty_label": "一般",
    "family_friendly": false,
    "length_km": 7.0,
    "alt_high": 2305.0,
    "alt_low": 1051.0,
    "ascent": 1254.0,
    "pave": "石階、山徑、木棧道",
    "tour": "一天",
    "best_season": "四季皆宜",
    "region": "臺中市",
    "position": "臺中市和平區",
    "system": "中央山脈脊樑國家步道系統",
    "admin": "臺中分署",
    "admin_phone": "森林育樂科:(04)25150855",
    "permit": "無",
    "transport": {
      "car": 1,
      "m_bus": 1,
      "l_bus": 0
    },
    "entrances": [
      {
        "lat": 24.198438,
        "lon": 121.018074,
        "height": 1051.0,
        "memo": "斯可巴步道登山口"
      },
      {
        "lat": 24.197201,
        "lon": 121.018162,
        "height": 1053.0,
        "memo": "谷關台電巷"
      }
    ],
    "lat": 24.198438,
    "lon": 121.018074,
    "guide": "馬崙山為雪山山脈白姑大山向西延伸之山岳，「谷關七雄」中排行老二，是中部著名的中級山。 步道0K至1.8K，以及通往八壯士神木的支線，過去合稱為「斯可巴步道」，是早期泰雅族原住民狩獵的場所之一，也是昔日新山林場之木馬道；而通往馬崙山的路徑則是早年新山分場員工運補生活用品修築的步道。\r\n先總統蔣介石先生曾到此視察，隨後下令將登山步道重新整修拓寬，保留伐木歷史遺跡，並新建涼亭、觀景台等設施。 \r\n馬崙山步道二葉松夾道，滿地松針與楓葉，走起來柔軟有彈性，秋季楓葉轉紅，更是有如紅地毯般的美麗。途經百年五葉松媽媽時，可聆聽松濤聲有如一波波海浪襲捲而來，伴隨著空氣中飄散著松香，令人心曠神怡。步道旁的展望平台可俯看谷關風光，遠眺山巒優美曲線，視野極佳，可說是谷關地區最優美的步道。\r\n",
    "url": "https://recreation.forest.gov.tw/Trail/RT?tr_id=057"
  },
  {
    "id": "forestry-059",
    "source": "forestry",
    "name": "白毛山步道",
    "difficulty": 2,
    "difficulty_label": "輕鬆",
    "family_friendly": true,
    "length_km": 2.3,
    "alt_high": 1522.0,
    "alt_low": 913.0,
    "ascent": 609.0,
    "pave": "水泥產業道路、山徑、木棧道",
    "tour": "一天",
    "best_season": "四季皆宜",
    "region": "臺中市",
    "position": "臺中市和平區",
    "system": "中央山脈脊樑國家步道系統",
    "admin": "臺中分署",
    "admin_phone": "森林育樂科:(04)25150855",
    "permit": "無",
    "transport": {
      "car": 1,
      "m_bus": 1,
      "l_bus": 0
    },
    "entrances": [
      {
        "lat": 24.168919,
        "lon": 120.919013,
        "height": 913.0,
        "memo": "馬鞍壩堤頂產業道路"
      }
    ],
    "lat": 24.168919,
    "lon": 120.919013,
    "guide": "白毛山位於大甲溪南岸，屬於谷關七雄中的老六，三角點約為1522公尺，擁有七雄中難得的展望。白毛山以闊葉次生林為主，及大面積的柳杉造林地，濃密的植被吸引許多大型哺乳動物和鳥類來此覓食。步道沿途多處陡峭地勢，三角點前的崩塌地可俯瞰大甲溪、谷關大道院，眺望東卯山、唐麻丹山等美景，山頂有木造涼亭可供休息。",
    "url": "https://recreation.forest.gov.tw/Trail/RT?tr_id=059"
  },
  {
    "id": "forestry-060",
    "source": "forestry",
    "name": "鳶嘴稍來小雪山國家步道",
    "difficulty": 3,
    "difficulty_label": "一般",
    "family_friendly": false,
    "length_km": 15.2,
    "alt_high": 2600.0,
    "alt_low": 1800.0,
    "ascent": 800.0,
    "pave": "石階、攀岩、山徑、木棧道",
    "tour": "一天以上",
    "best_season": "四季皆宜",
    "region": "臺中市",
    "position": "臺中市和平區",
    "system": "中央山脈脊樑國家步道系統",
    "admin": "臺中分署",
    "admin_phone": "森林育樂科:(04)25150855",
    "permit": "無",
    "transport": {
      "car": 1,
      "m_bus": 1,
      "l_bus": 0
    },
    "entrances": [
      {
        "lat": 24.234776,
        "lon": 120.954469,
        "height": 1800.0,
        "memo": "大雪山林道27.5k"
      },
      {
        "lat": 24.245489,
        "lon": 120.976996,
        "height": 2275.0,
        "memo": "大雪山林道43k"
      },
      {
        "lat": 24.267333,
        "lon": 120.999458,
        "height": 2212.0,
        "memo": "鞍馬山工作站後方"
      },
      {
        "lat": 24.255613,
        "lon": 121.009277,
        "height": 2312.0,
        "memo": "大雪山林道43.2k"
      },
      {
        "lat": 24.278789,
        "lon": 121.025699,
        "height": 2600.0,
        "memo": "小雪山旅遊資訊站停車場"
      },
      {
        "lat": 24.255613,
        "lon": 121.009277,
        "height": 2312.0,
        "memo": "大雪山林道43.2k"
      },
      {
        "lat": 24.268958,
        "lon": 121.012755,
        "height": 2655.0,
        "memo": "主線8k"
      }
    ],
    "lat": 24.234776,
    "lon": 120.954469,
    "guide": "鳶嘴稍來國家步道為中部地區中海拔熱門登山路線，鳶嘴山、稍來山是可以分開走的兩條步道，其中鳶嘴山以險峻危崖出名，而稍來山以秋天滿佈的台灣紅榨槭為名，兩山連走沿途峭壁綿延、景觀秀麗。 船型山、鞍馬山位於大雪山森林遊樂區內，雪山山脈中末段稜脊，由稍來小雪山國家步道串連，從35.2k收票亭附近登山口起登，至49k小雪山旅遊資訊站停車場，本路段長約10公里。",
    "url": "https://recreation.forest.gov.tw/Trail/RT?tr_id=060"
  },
  {
    "id": "forestry-061",
    "source": "forestry",
    "name": "合歡尖山步道",
    "difficulty": 3,
    "difficulty_label": "一般",
    "family_friendly": false,
    "length_km": 0.4,
    "alt_high": 3217.0,
    "alt_low": 3110.0,
    "ascent": 107.0,
    "pave": "山徑",
    "tour": "半天",
    "best_season": "五、六月",
    "region": "南投縣",
    "position": "南投縣仁愛鄉",
    "system": "中央山脈脊樑國家步道系統",
    "admin": "南投分署",
    "admin_phone": "合歡山森林遊樂區:(049)282980",
    "permit": "無",
    "transport": {
      "car": 1,
      "m_bus": 1,
      "l_bus": 1
    },
    "entrances": [
      {
        "lat": 24.144884,
        "lon": 121.283781,
        "height": 3110.0,
        "memo": "合歡山遊客服務中心"
      },
      {
        "lat": 24.142625,
        "lon": 121.284504,
        "height": 3138.0,
        "memo": "臺14甲線33.5k"
      }
    ],
    "lat": 24.144884,
    "lon": 121.283781,
    "guide": "合歡尖山，海拔高度3217公尺，屬於合歡群峰之一，但未在百岳之列。其數學課教具一般的角錐型外觀給人留下深刻印象。其特殊外型是冰河時期兩個或多個相鄰的冰河朝不同方向挖削而形成的，此種原因形成之地形稱為角峰，或稱冰斗峰。步道不長，但山勢拔地而起，坡度陡峭，北面為新建之階梯式木棧道，南面則以岩石及土徑為主，灰石嶙峋，箭竹夾道，沒有高聳的樹木遮蔭，部分路段需拉繩、手腳併用而上。山頂腹地小但展望佳，合歡群峰盡收眼底，亦可遠眺奇萊主、北等中央山脈群山。",
    "url": "https://recreation.forest.gov.tw/Trail/RT?tr_id=061"
  },
  {
    "id": "forestry-062",
    "source": "forestry",
    "name": "合歡東峰步道",
    "difficulty": 3,
    "difficulty_label": "一般",
    "family_friendly": true,
    "length_km": 0.95,
    "alt_high": 3421.0,
    "alt_low": 3100.0,
    "ascent": 321.0,
    "pave": "石階、山徑、木棧道",
    "tour": "半天",
    "best_season": "5、6月",
    "region": "花蓮縣",
    "position": "花蓮縣秀林鄉",
    "system": "中央山脈脊樑國家步道系統",
    "admin": "南投分署",
    "admin_phone": "合歡山森林遊樂區:(049)2802980",
    "permit": "無",
    "transport": {
      "car": 1,
      "m_bus": 1,
      "l_bus": 1
    },
    "entrances": [
      {
        "lat": 24.1405,
        "lon": 121.286192,
        "height": 3100.0,
        "memo": "松雪樓滑雪山莊"
      }
    ],
    "lat": 24.1405,
    "lon": 121.286192,
    "guide": "合歡東峰海拔3421公尺，百岳編號35號，登山口位於松雪樓後方。步道四季景色分明，春季野花綻放，夏季綠意盎然、秋季蕭瑟、冬季覆雪，景緻各有千秋。步道沿線為玉山杜鵑族群最為集中之處，每逢5、6月間，桃紅色花海點綴著山頭滿山的奼紫嫣紅。昔日在坡度較為平緩的東峰東側曾設有滑雪訓練場，因此步道沿途可見廢棄的纜車轉運站。",
    "url": "https://recreation.forest.gov.tw/Trail/RT?tr_id=062"
  },
  {
    "id": "forestry-063",
    "source": "forestry",
    "name": "桃山瀑布步道",
    "difficulty": 2,
    "difficulty_label": "輕鬆",
    "family_friendly": false,
    "length_km": 4.3,
    "alt_high": 2200.0,
    "alt_low": 1800.0,
    "ascent": 400.0,
    "pave": "石階、山徑、木棧道",
    "tour": "一天",
    "best_season": "四季皆宜",
    "region": "臺中市",
    "position": "臺中市和平區",
    "system": "中央山脈脊樑國家步道系統",
    "admin": "臺中分署",
    "admin_phone": "梨山工作站:(04)25989208",
    "permit": "無",
    "transport": {
      "car": 1,
      "m_bus": 1,
      "l_bus": 1
    },
    "entrances": [
      {
        "lat": 24.397934,
        "lon": 121.307828,
        "height": 1800.0,
        "memo": "武陵山莊"
      }
    ],
    "lat": 24.397934,
    "lon": 121.307828,
    "guide": "桃山瀑布名列全台六大瀑布之一，位於桃山之中，而桃山名稱的來由為遠看山形如桃子般。 \r\n\r\n步道散發著松枝的清香，全程林蔭幽幽，彷彿是童話故事般森林裡的場景。 步道緩緩而上，沿途經過的武陵吊橋在秋日染上一片火紅，而橋下的台灣國寶「臺灣櫻花鉤吻鮭」正悠游其中；途中的觀景點景色遼闊，可遠眺桃山、雪山山脈，並可俯瞰武陵全景。桃山瀑布於步道盡頭，原稱煙聲瀑布，海拔2500公尺，高約80公尺，雨季過後水量驚人壯觀，抵達瀑布底下，記得在山壁上找找日漸斑駁的「煙聲」二字。\r\n",
    "url": "https://recreation.forest.gov.tw/Trail/RT?tr_id=063"
  },
  {
    "id": "forestry-064",
    "source": "forestry",
    "name": "能高越嶺道-西段",
    "difficulty": 3,
    "difficulty_label": "一般",
    "family_friendly": false,
    "length_km": 15.2,
    "alt_high": 2860.0,
    "alt_low": 1860.0,
    "ascent": 1000.0,
    "pave": "土路面、木棧道、木階梯、吊橋",
    "tour": "一天以上",
    "best_season": "四季皆宜",
    "region": "南投縣",
    "position": "南投縣仁愛鄉",
    "system": "中央山脈脊樑國家步道系統",
    "admin": "南投分署",
    "admin_phone": "西段請洽049-2365226轉2510森林育樂科、東段請洽038-325141轉262森林育樂科",
    "permit": "無",
    "transport": {
      "car": 1,
      "m_bus": 0,
      "l_bus": 0
    },
    "entrances": [
      {
        "lat": 24.053244,
        "lon": 121.211721,
        "height": 2150.0,
        "memo": null
      }
    ],
    "lat": 24.053244,
    "lon": 121.211721,
    "guide": "「能高越嶺道」是橫越能高山區、連接中央山脈兩側的路徑，西段位於南投縣仁愛鄉，東段位於花蓮縣秀林鄉，原先是賽德克族原住民遷徙及貿易的社路。\r\n\r\n日治時期，日本人為獲取台灣的山林資源，同時確保對山區的控制，決議開發「能高越嶺警備道路」。這條警備道路最初的路線是從霧社經由聯帶山鞍部通往初音，後改由能高山和南華山（能高山北峰）間的鞍部越嶺，成為現今大家熟悉的嶺道路線。 \r\n\r\n台灣光復以後，台電將能高越嶺道拓建成保線路以進行「東電西送」和電話線路架設之工程，對台灣西部的工業發展與民生有極大貢獻，為紀念此重大建設，台電特別在能高鞍部設置「光被八表」紀念碑，上頭刻有時任總統蔣介石的題字：「光被八表、利溥民生」。本路線於2002年後被林業及自然保育署納入國家步道系統加以保護，近年來已經成為熱門的登山路線。\r\n",
    "url": "https://recreation.forest.gov.tw/Trail/RT?tr_id=064"
  },
  {
    "id": "forestry-066",
    "source": "forestry",
    "name": "能高越嶺道：東段",
    "difficulty": 5,
    "difficulty_label": "挑戰",
    "family_friendly": false,
    "length_km": 11.0,
    "alt_high": 3263.0,
    "alt_low": 1689.0,
    "ascent": 1574.0,
    "pave": "聯外道路目前車輛可達奇萊路1K處磐石保線所，需從此處徒步行走，112年-114年歷多次颱風帶來的豪雨侵襲，造成多處邊坡大面積崩塌，通行具有極高的風險。",
    "tour": "一天以上",
    "best_season": "四季皆宜",
    "region": "花蓮縣",
    "position": "花蓮縣秀林鄉",
    "system": "中央山脈脊樑國家步道系統",
    "admin": "花蓮分署",
    "admin_phone": "南華工作站:(03)8527526",
    "permit": "無",
    "transport": {
      "car": 0,
      "m_bus": 0,
      "l_bus": 0
    },
    "entrances": [
      {
        "lat": 24.029162,
        "lon": 121.27981,
        "height": 2811.0,
        "memo": "台14甲15.1k"
      },
      {
        "lat": 24.029322,
        "lon": 121.33507,
        "height": 1554.0,
        "memo": "台14甲26k"
      }
    ],
    "lat": 24.029162,
    "lon": 121.27981,
    "guide": "能高越嶺道全長26.5公里，越嶺道里程數計算是以西段南投屯原登山口(0公里)開始，至東段登山口26.5公里處為步道終點，而光被八表碑位於越嶺道15.5公里處，是越嶺道經中央山脈的越嶺點，也是越嶺道西段與東段的分界點。故能高越嶺道東段是指從東段登山口海拔1582公尺至光被八表碑海拔2787公尺，全長11公里，海拔爬升1205公尺，途中經五甲崩山、檜林保線所及上檜林吊橋等路段。",
    "url": "https://recreation.forest.gov.tw/Trail/RT?tr_id=066"
  },
  {
    "id": "forestry-067",
    "source": "forestry",
    "name": "桃源里森林步道",
    "difficulty": 1,
    "difficulty_label": "親子",
    "family_friendly": false,
    "length_km": 4.43,
    "alt_high": 140.0,
    "alt_low": 103.0,
    "ascent": 37.0,
    "pave": "山徑、木階梯、木棧橋、吊索橋、產業道路",
    "tour": "半天",
    "best_season": "四季皆宜",
    "region": "彰化縣",
    "position": "彰化縣彰化市",
    "system": "中央山脈脊樑國家步道系統",
    "admin": "南投分署",
    "admin_phone": "竹山工作站:(049)2642003",
    "permit": "無",
    "transport": {
      "car": 0,
      "m_bus": null,
      "l_bus": null
    },
    "entrances": [
      {
        "lat": 24.064979,
        "lon": 120.567642,
        "height": 20.0,
        "memo": null
      },
      {
        "lat": 24.063398,
        "lon": 120.564581,
        "height": null,
        "memo": "三清宮下方(體適能)"
      },
      {
        "lat": 24.060378,
        "lon": 120.565605,
        "height": null,
        "memo": "三清宮廟口(體適能)"
      },
      {
        "lat": 24.059809,
        "lon": 120.566118,
        "height": null,
        "memo": "桃源里步道口"
      },
      {
        "lat": 24.062896,
        "lon": 120.567379,
        "height": null,
        "memo": "歡喜園旁(桃源里)"
      },
      {
        "lat": 24.063275,
        "lon": 120.57072,
        "height": null,
        "memo": "虎崗路旁(桃源里)"
      },
      {
        "lat": 24.060516,
        "lon": 120.568455,
        "height": null,
        "memo": "產業道路旁(桃源里)"
      },
      {
        "lat": 24.058478,
        "lon": 120.567876,
        "height": null,
        "memo": "產業道路旁(龍鳳谷)"
      },
      {
        "lat": 24.0596,
        "lon": 120.568139,
        "height": null,
        "memo": "產業道路旁(龍鳳谷)"
      }
    ],
    "lat": 24.064979,
    "lon": 120.567642,
    "guide": "桃源里森林步道位於八卦山大佛風景區南麓，毗臨三清宮、八卦禪寺、慈惠堂及東山禪院等廟宇，由森林步道、龍鳳谷步道、幽蘭谷步道、體適能區步道組合而成，是居民漫步與運動健身的後花園。\r\n\r\n沿線有吊索橋、體健設施休憩區、觀景平台等設施，景觀豐富。 步道植物多元，春季有白色油桐花，再由相思樹金黃花海接棒，夏季有楊桃林、龍眼林、荔枝林等果樹散發著芳香的氣味，以及歡喜生態園自然生態環境，吸引鳥類、昆蟲、蝴蝶等生物棲息繁殖。清明時節成群的灰面鵟鷹北返過境八卦山脈，得天獨厚的地理環境優勢，是觀賞野鳥與賞鷹的聖地。\r\n",
    "url": "https://recreation.forest.gov.tw/Trail/RT?tr_id=067"
  },
  {
    "id": "forestry-069",
    "source": "forestry",
    "name": "清水岩步道群",
    "difficulty": 1,
    "difficulty_label": "親子",
    "family_friendly": false,
    "length_km": 4.1,
    "alt_high": 320.0,
    "alt_low": 0.0,
    "ascent": 320.0,
    "pave": "土路面、木棧道、木階梯",
    "tour": "一天",
    "best_season": "四季皆宜",
    "region": "彰化縣",
    "position": "彰化縣社頭鄉、田中鎮",
    "system": "中央山脈脊樑國家步道系統",
    "admin": "南投分署",
    "admin_phone": "竹山工作站:(049)2642003",
    "permit": "無",
    "transport": {
      "car": 0,
      "m_bus": null,
      "l_bus": null
    },
    "entrances": [
      {
        "lat": 23.882996,
        "lon": 120.614022,
        "height": null,
        "memo": "土地公旁(清水)"
      },
      {
        "lat": 23.87886,
        "lon": 120.613298,
        "height": null,
        "memo": "自行車道交會處(清水)"
      },
      {
        "lat": 23.877076,
        "lon": 120.624726,
        "height": null,
        "memo": "擎天崗口(清水)"
      },
      {
        "lat": 23.878986,
        "lon": 120.626269,
        "height": null,
        "memo": "山頂口(十八彎)"
      },
      {
        "lat": 23.882626,
        "lon": 120.619987,
        "height": null,
        "memo": "十八彎山腳口"
      },
      {
        "lat": 23.884717,
        "lon": 120.614546,
        "height": null,
        "memo": "二棧坪(封閉中)"
      },
      {
        "lat": 23.883904,
        "lon": 120.615639,
        "height": null,
        "memo": "停車場(清水)"
      }
    ],
    "lat": 23.882996,
    "lon": 120.614022,
    "guide": "清水岩步道群位於彰化縣社頭鄉清水岩寺旁，包含3條步道，分別是十八彎挑鹽古道、中央嶺造林步道及園區串連步道，林相優美，步道難易適中，構成路線完整、景觀多樣的步道系統。",
    "url": "https://recreation.forest.gov.tw/Trail/RT?tr_id=069"
  },
  {
    "id": "forestry-070",
    "source": "forestry",
    "name": "麒麟山森林步道",
    "difficulty": 1,
    "difficulty_label": "親子",
    "family_friendly": false,
    "length_km": 1.2,
    "alt_high": 200.0,
    "alt_low": 144.0,
    "ascent": 56.0,
    "pave": "道路、自行車道、山徑、階梯",
    "tour": "半天",
    "best_season": "四季皆宜",
    "region": "彰化縣",
    "position": "彰化縣田中鎮；南投縣名間鄉",
    "system": "中央山脈脊樑國家步道系統",
    "admin": "南投分署",
    "admin_phone": "竹山工作站:(049)2642003",
    "permit": "無",
    "transport": {
      "car": 0,
      "m_bus": null,
      "l_bus": null
    },
    "entrances": [
      {
        "lat": 23.862383,
        "lon": 120.609361,
        "height": null,
        "memo": "普興寺(停車場)"
      },
      {
        "lat": 23.861917,
        "lon": 120.610083,
        "height": null,
        "memo": "自行車道交會口"
      },
      {
        "lat": 23.862917,
        "lon": 120.60975,
        "height": null,
        "memo": "聯外道交會處"
      },
      {
        "lat": 23.862944,
        "lon": 120.610222,
        "height": null,
        "memo": "自行車道交會口"
      },
      {
        "lat": 23.861639,
        "lon": 120.610333,
        "height": null,
        "memo": "主步道口"
      }
    ],
    "lat": 23.862383,
    "lon": 120.609361,
    "guide": "麒麟山森林步道位於彰化縣田中鎮贊天宮與普興寺的後方，由南投縣分署採自然工法整建而成，施工時刻意保留原有的大樹，從左右繞道而行，成了饒富趣味與巧思的離樹棧道。 \r\n\r\n沿途設有多處觀景平台、涼亭和露天體能設施，綠樹成蔭、景致優美，木棧道左鄰深壑、右望山谷，稜線上視野遼闊，能欣賞到南側壯觀的相思樹海和惡地地形的峭壁與深谷，西邊可俯瞰田中市區與彰化平原風光。 全程起伏落差不大，可一邊運動一邊賞景環繞一圈、返回起點，適合全家老小戶外踏青、扶老攜幼同遊山林。\r\n",
    "url": "https://recreation.forest.gov.tw/Trail/RT?tr_id=070"
  },
  {
    "id": "forestry-072",
    "source": "forestry",
    "name": "坑內坑森林步道",
    "difficulty": 1,
    "difficulty_label": "親子",
    "family_friendly": true,
    "length_km": 2.11,
    "alt_high": 380.0,
    "alt_low": 140.0,
    "ascent": 240.0,
    "pave": "土路面、木棧道、木階梯、吊橋",
    "tour": "半天",
    "best_season": "四季皆宜",
    "region": "彰化縣",
    "position": "彰化縣二水鄉",
    "system": "中央山脈脊樑國家步道系統",
    "admin": "南投分署",
    "admin_phone": "竹山工作站:(049)2642003",
    "permit": "無",
    "transport": {
      "car": 0,
      "m_bus": null,
      "l_bus": null
    },
    "entrances": [
      {
        "lat": 23.832444,
        "lon": 120.62975,
        "height": null,
        "memo": "豐柏路交會處"
      },
      {
        "lat": 23.833,
        "lon": 120.62825,
        "height": null,
        "memo": "產業道交會處"
      }
    ],
    "lat": 23.832444,
    "lon": 120.62975,
    "guide": "坑內坑森林步道原為早先居民要上松柏嶺受天宮進香，因此走出的一條進香古道，串連彰化縣與南投縣兩地。沿途有生態工程展示區、生態觀察區、觀景平臺。每年三月黃金風鈴木開著金黃的花朵，化為延綿幾百公尺的黃金隧道，是一大特色。 ",
    "url": "https://recreation.forest.gov.tw/Trail/RT?tr_id=072"
  },
  {
    "id": "forestry-075",
    "source": "forestry",
    "name": "澀水森林步道",
    "difficulty": 1,
    "difficulty_label": "親子",
    "family_friendly": false,
    "length_km": 4.0,
    "alt_high": 800.0,
    "alt_low": 500.0,
    "ascent": 300.0,
    "pave": "木棧道、階梯、產業道路",
    "tour": "半天",
    "best_season": "四季皆宜",
    "region": "南投縣",
    "position": "南投縣魚池鄉",
    "system": "中央山脈脊樑國家步道系統",
    "admin": "南投分署",
    "admin_phone": "埔里工作站:049-2982155",
    "permit": "無",
    "transport": {
      "car": 0,
      "m_bus": null,
      "l_bus": null
    },
    "entrances": [
      {
        "lat": 23.924028,
        "lon": 120.919056,
        "height": null,
        "memo": "景觀橋-步道出入口處"
      },
      {
        "lat": 23.926778,
        "lon": 120.914694,
        "height": null,
        "memo": "一號橋旁-步道出入口處"
      }
    ],
    "lat": 23.924028,
    "lon": 120.919056,
    "guide": "澀水森林步道位於南投縣魚池鄉中潭公路西南側大雁隧道旁澀水社區內，由金天宮旁開始進入森林步道，沿途可見社區主要經濟作物-茶葉、蓊鬱森林、天然溼地及瀑布溪流等棲地環境。\r\n因有桃米坑溪上游及澀水溪貫穿，擁有豐富多樣的蛙類、鳥類、哺乳類及昆蟲。",
    "url": "https://recreation.forest.gov.tw/Trail/RT?tr_id=075"
  },
  {
    "id": "forestry-078",
    "source": "forestry",
    "name": "龍過脈森林步道",
    "difficulty": 1,
    "difficulty_label": "親子",
    "family_friendly": true,
    "length_km": 4.2,
    "alt_high": 200.0,
    "alt_low": 90.0,
    "ascent": 110.0,
    "pave": "土路面、木棧道、木階梯",
    "tour": "半天",
    "best_season": "春",
    "region": "雲林縣",
    "position": "雲林縣林內鄉",
    "system": "中央山脈脊樑國家步道系統",
    "admin": "南投分署",
    "admin_phone": "竹山工作站:(049)2642003",
    "permit": "無",
    "transport": {
      "car": 0,
      "m_bus": null,
      "l_bus": null
    },
    "entrances": [
      {
        "lat": 23.753944,
        "lon": 120.615639,
        "height": null,
        "memo": "林內濟公堂入口處"
      },
      {
        "lat": 23.754306,
        "lon": 120.624583,
        "height": null,
        "memo": "產業道交會處"
      },
      {
        "lat": 23.75125,
        "lon": 120.633194,
        "height": null,
        "memo": "產業道路交會處"
      }
    ],
    "lat": 23.753944,
    "lon": 120.615639,
    "guide": "龍過脈森林步道串連林內鄉的林中、林南及坪頂三村。林內山脈和草嶺、南投縣竹山鎮的層峰疊延，與觸口山、東甲山相連，相傳從草嶺、竹山交界處往低山俯瞰，林內境內山脈稜線狀似一條龍的背脊，到濁水溪與清水溪交會口時，又像是龍汲水，因此得名「龍過脈」。\r\n\r\n步道有豐富多元的自然與人文景觀。 從鐵管坑段入口進入，首先經過林內公園，公園的前身是神社，因此有鳥居靜靜矗立。 登上龍脊，稜線上的展望很好，可眺望雲林地區，也可以看見八卦山山脈。下稜線進入林蔭間，天然的低海拔次生林生態資源相當豐富，可能會遇到大冠鷲和台灣獼猴，或是珍貴的八色鳥。春天時可以遇見美麗的紫斑蝶群。這條龍平易近人，兼具人文歷史和自然美景，適合親子同遊。\r\n",
    "url": "https://recreation.forest.gov.tw/Trail/RT?tr_id=078"
  },
  {
    "id": "forestry-079",
    "source": "forestry",
    "name": "二崙自然步道",
    "difficulty": 1,
    "difficulty_label": "親子",
    "family_friendly": true,
    "length_km": 4.0,
    "alt_high": 30.0,
    "alt_low": 0.0,
    "ascent": 30.0,
    "pave": "粉砂路面、木棧道、木階梯",
    "tour": "半天",
    "best_season": "四季皆宜",
    "region": "雲林縣",
    "position": "雲林縣二崙鄉",
    "system": "中央山脈脊樑國家步道系統",
    "admin": "南投分署",
    "admin_phone": "竹山工作站:(049)2642003",
    "permit": "無",
    "transport": {
      "car": 0,
      "m_bus": null,
      "l_bus": null
    },
    "entrances": [
      {
        "lat": 23.81575,
        "lon": 120.394167,
        "height": null,
        "memo": "市場旁"
      }
    ],
    "lat": 23.81575,
    "lon": 120.394167,
    "guide": "二崙自然步道位於台19線西邊27公頃的保安林地內，日治時期名為四番地，河床的沙土經年累月積沙成丘，如今規劃成為綠意盎然的生態步道園區。\r\n\r\n步道順著沙丘地形起伏，走在鬆軟金黃的沙地上，非常特別。沿途規劃設置了文竹棧道、吊橋、觀湖平臺、戶外昆蟲教室、會呼吸的涼亭以及休憩區等。 其中文竹棧道兩旁種滿俗稱新娘草的文竹，充滿浪漫氛圍，步道設有植物生態解說牌，健行之餘亦可增長見聞，步道至底有觀湖平臺，眺望湖面風光明媚，由另一條路回程環形一圈，十分悠閒輕鬆，老少咸宜。 \r\n",
    "url": "https://recreation.forest.gov.tw/Trail/RT?tr_id=079"
  },
  {
    "id": "forestry-080",
    "source": "forestry",
    "name": "塔山步道",
    "difficulty": 2,
    "difficulty_label": "輕鬆",
    "family_friendly": true,
    "length_km": 3.5,
    "alt_high": 2663.0,
    "alt_low": 2100.0,
    "ascent": 563.0,
    "pave": "枕木碎石步道、木棧道",
    "tour": "一天",
    "best_season": "四季皆宜",
    "region": "嘉義縣",
    "position": "嘉義縣阿里山鄉",
    "system": "中央山脈脊樑國家步道系統",
    "admin": "嘉義分署",
    "admin_phone": "森林育樂科:(05)2787006",
    "permit": "無",
    "transport": {
      "car": 1,
      "m_bus": 1,
      "l_bus": 1
    },
    "entrances": [
      {
        "lat": 23.518092,
        "lon": 120.814908,
        "height": 2252.0,
        "memo": "位於阿里山遊樂區姊妹潭旁"
      },
      {
        "lat": 23.535765,
        "lon": 120.808508,
        "height": 2663.0,
        "memo": "山頂"
      }
    ],
    "lat": 23.518092,
    "lon": 120.814908,
    "guide": "大塔山與西邊的小塔山及其數座山岳合稱為塔山山系，是鄒族心目中的聖山。塔山步道起點為姊妹潭之妹潭旁，前段與阿里山森林鐵路併行，前2公里枕木棧道平緩好走，欣賞高聳的檜木林，享受芬多精森林浴，最後1.5公里較為陡升。終點是塔山頂觀景台，擁有360度視野，可欣賞阿里山森林遊樂區全景，以及遠眺玉山群峰壯麗優美的景緻。",
    "url": "https://recreation.forest.gov.tw/Trail/RT?tr_id=080"
  },
  {
    "id": "forestry-081",
    "source": "forestry",
    "name": "特富野古道",
    "difficulty": 2,
    "difficulty_label": "輕鬆",
    "family_friendly": true,
    "length_km": 6.32,
    "alt_high": 2282.0,
    "alt_low": 1798.0,
    "ascent": 484.0,
    "pave": "枕木碎石步道、山徑",
    "tour": "一天",
    "best_season": "四季皆宜",
    "region": "嘉義縣",
    "position": "嘉義縣阿里山鄉；南投縣信義鄉",
    "system": "中央山脈脊樑國家步道系統",
    "admin": "嘉義分署",
    "admin_phone": "森林育樂科:(05)2787006",
    "permit": "無",
    "transport": {
      "car": 1,
      "m_bus": 1,
      "l_bus": 1
    },
    "entrances": [
      {
        "lat": 23.47109,
        "lon": 120.793614,
        "height": 1775.0,
        "memo": "位於特富野"
      },
      {
        "lat": 23.484047,
        "lon": 120.830189,
        "height": 2275.0,
        "memo": "位於自忠"
      }
    ],
    "lat": 23.47109,
    "lon": 120.793614,
    "guide": "特富野古道位於嘉義縣阿里山鄉，原為鄒族人早年開闢的獵徑，日治時期古道後段改建成運送林木的「水山線」鐵路，至今仍留有許多鐵道遺跡。\r\n步道前段鐵道較為平緩，沿途遍植柳杉，景色非常美麗；後段則是陡下的枕木階梯步道，為闊葉原始森林，四季景觀變化多端，動植物生態豐富，是極佳的賞鳥步道。\r\n",
    "url": "https://recreation.forest.gov.tw/Trail/RT?tr_id=081"
  },
  {
    "id": "forestry-082",
    "source": "forestry",
    "name": "嘉南雲峰步道",
    "difficulty": 2,
    "difficulty_label": "輕鬆",
    "family_friendly": false,
    "length_km": 9.7,
    "alt_high": 1795.0,
    "alt_low": 1300.0,
    "ascent": 495.0,
    "pave": "枕木碎石步道、山徑",
    "tour": "一天",
    "best_season": "四季皆宜",
    "region": "雲林縣",
    "position": "雲林縣古坑鄉",
    "system": "雲嘉-大阿里山區域步道系統",
    "admin": "嘉義分署",
    "admin_phone": "森林育樂科:(05)2787006",
    "permit": "無",
    "transport": {
      "car": 1,
      "m_bus": 1,
      "l_bus": 1
    },
    "entrances": [
      {
        "lat": 23.603662,
        "lon": 120.724403,
        "height": 1751.0,
        "memo": "石壁山三角點"
      },
      {
        "lat": 23.610987,
        "lon": 120.730571,
        "height": 1795.0,
        "memo": "嘉南雲峰三角點"
      },
      {
        "lat": 23.616571,
        "lon": 120.727727,
        "height": 1500.0,
        "memo": "北側入口"
      },
      {
        "lat": 23.608659,
        "lon": 120.721629,
        "height": 1440.0,
        "memo": "南側入口"
      },
      {
        "lat": 23.613769,
        "lon": 120.720775,
        "height": 1225.0,
        "memo": "中側入口"
      }
    ],
    "lat": 23.603662,
    "lon": 120.724403,
    "guide": "因位於嘉義、南投、雲林三縣交界故名「嘉南雲峰」。翠綠的孟宗竹林，十分優美，全程幾乎曬不到太陽，石壁山及好望角視野極佳，展望層疊的山巒，蜿蜒曲折的清水溪。",
    "url": "https://recreation.forest.gov.tw/Trail/RT?tr_id=082"
  },
  {
    "id": "forestry-083",
    "source": "forestry",
    "name": "瑞太古道",
    "difficulty": 2,
    "difficulty_label": "輕鬆",
    "family_friendly": false,
    "length_km": 5.2,
    "alt_high": 1500.0,
    "alt_low": 1000.0,
    "ascent": 500.0,
    "pave": "山徑、枕木階梯",
    "tour": "半天",
    "best_season": "四季皆宜",
    "region": "嘉義縣",
    "position": "嘉義縣梅山鄉",
    "system": "中央山脈脊樑國家步道系統",
    "admin": "嘉義分署",
    "admin_phone": "森林育樂科:(05)2787006",
    "permit": "無",
    "transport": {
      "car": 1,
      "m_bus": 1,
      "l_bus": 1
    },
    "entrances": [
      {
        "lat": 23.543155,
        "lon": 120.683549,
        "height": 1123.0,
        "memo": "位於茶場旁"
      },
      {
        "lat": 23.538128,
        "lon": 120.698272,
        "height": 1415.0,
        "memo": "出入口"
      }
    ],
    "lat": 23.543155,
    "lon": 120.683549,
    "guide": "瑞太古道舊稱幼哈林道，為連結瑞里及太和之山道，至今超過百年歷史。\r\n\r\n清光緒年間，漢人以獵槍、鐮刀等日常生活用品，和當地原住民交換土地，移入的住民增加，因而開闢瑞太古道方便各聚落間的聯繫，是早期先民遷徙入墾與農產運輸的主要交通要道。 後來日治時期，為方便瑞里、太和地區居民擔送農產與通學，1931年古道進行修改工程。抹油坑、英雄坡、魔窟石洞到回頭嶺這一段，是始建於清代1870年代的古道，而抹油坑、望天崖到回頭嶺這段，是1931年改建的古道。 古道全程行走在孟宗竹林之中，當陽光穿透間隙灑下光束時，特別寧靜，而一路竹林聲沙沙作響。\r\n",
    "url": "https://recreation.forest.gov.tw/Trail/RT?tr_id=083"
  },
  {
    "id": "forestry-084",
    "source": "forestry",
    "name": "四大天王山步道",
    "difficulty": 1,
    "difficulty_label": "親子",
    "family_friendly": false,
    "length_km": 3.5,
    "alt_high": 1320.0,
    "alt_low": 940.0,
    "ascent": 380.0,
    "pave": "山徑、石板階梯",
    "tour": "半天",
    "best_season": "四季皆宜",
    "region": "嘉義縣",
    "position": "嘉義縣竹崎鄉",
    "system": "中央山脈脊樑國家步道系統",
    "admin": "嘉義分署",
    "admin_phone": "森林育樂科:(05)2787006",
    "permit": "無",
    "transport": {
      "car": 1,
      "m_bus": 1,
      "l_bus": 1
    },
    "entrances": [
      {
        "lat": 23.505586,
        "lon": 120.660315,
        "height": 1194.0,
        "memo": "位於水社寮火車站旁"
      },
      {
        "lat": 23.511164,
        "lon": 120.654886,
        "height": 1298.0,
        "memo": "終點"
      }
    ],
    "lat": 23.505586,
    "lon": 120.660315,
    "guide": "四大天王是由四天皇山、青園山、篤鼻山、知鳥山等四座山峰的統稱，象徵如四位山王守護著水社寮、交力坪一帶的山區，又稱為「四季平安山」。\r\n\r\n由水社寮火車站登山口起登，涓涓小溪相伴，茂密的孟宗竹林夾道，蒼鬱翠綠，十分幽靜，時而光影婆娑，時而雲霧飄渺，有如世外桃源，步道環繞著四天皇山，高點海拔1458公尺，無三角點，有一座休憩平台座落竹林之中，途中可觀賞阿里山森林鐵道、古樸的水社寮車站、茶園、山巒層疊、雲海翻騰等美麗景緻。\r\n",
    "url": "https://recreation.forest.gov.tw/Trail/RT?tr_id=084"
  },
  {
    "id": "forestry-085",
    "source": "forestry",
    "name": "獨立山步道",
    "difficulty": 1,
    "difficulty_label": "親子",
    "family_friendly": true,
    "length_km": 5.0,
    "alt_high": 816.0,
    "alt_low": 543.0,
    "ascent": 273.0,
    "pave": "山徑、階梯",
    "tour": "半天",
    "best_season": "全年",
    "region": "嘉義縣",
    "position": "嘉義縣竹崎鄉",
    "system": "中央山脈脊樑國家步道系統",
    "admin": "嘉義分署",
    "admin_phone": "森林育樂科:(05)2787006",
    "permit": "無",
    "transport": {
      "car": 1,
      "m_bus": 0,
      "l_bus": 0
    },
    "entrances": [
      {
        "lat": 23.532946,
        "lon": 120.60258,
        "height": 555.0,
        "memo": "位於樟腦寮火車站旁"
      },
      {
        "lat": 23.542652,
        "lon": 120.605685,
        "height": 873.0,
        "memo": "位於廟旁"
      }
    ],
    "lat": 23.532946,
    "lon": 120.60258,
    "guide": "嘉義縣內群山連綿，唯有獨立山行單影孤，孑然而立，因而得名。獨立山步道前身為獨立山古道，最早為先民運送山下日常必需物品至山區而闢的古道。日治時期為運送林產而修建阿里山鐵路，在獨立山環繞三週而達山頂。 \r\n獨立山古道規劃為獨立山國家步道，難易度低，適合親子共遊。沿途可見溪谷、鐵道、隧道、吊橋，景觀多變。螺旋三次而上的鐵道更是特有的景觀。\r\n",
    "url": "https://recreation.forest.gov.tw/Trail/RT?tr_id=085"
  },
  {
    "id": "forestry-086",
    "source": "forestry",
    "name": "獨立山-大巃頂步道",
    "difficulty": 2,
    "difficulty_label": "輕鬆",
    "family_friendly": true,
    "length_km": 1.6,
    "alt_high": 1190.0,
    "alt_low": 840.0,
    "ascent": 350.0,
    "pave": "枕木、山徑",
    "tour": "一天",
    "best_season": "全年",
    "region": "嘉義縣",
    "position": "嘉義縣竹崎鄉",
    "system": "中央山脈脊樑國家步道系統",
    "admin": "嘉義分署",
    "admin_phone": "森林育樂科:(05)2787006",
    "permit": "無",
    "transport": {
      "car": 1,
      "m_bus": 1,
      "l_bus": 0
    },
    "entrances": [
      {
        "lat": 23.542652,
        "lon": 120.605685,
        "height": 873.0,
        "memo": "位於廟旁"
      },
      {
        "lat": 23.542654,
        "lon": 120.606341,
        "height": 860.0,
        "memo": "終點"
      }
    ],
    "lat": 23.542652,
    "lon": 120.605685,
    "guide": "獨立山至大巃頂步道又名紅南坑森林古道，步道起點為紅南坑的奉天岩（H874m）到大巃頂山頂的大巃頂休閒民宿附近，步道長約1550公尺左右，沿途會經過檳榔園、孟宗竹林，單程約需一小時的步程。雖是獨立山古道中最長的一段，但站在坪頂上，放眼望去皆為茶園，視野遼闊，展望極佳。",
    "url": "https://recreation.forest.gov.tw/Trail/RT?tr_id=086"
  },
  {
    "id": "forestry-090",
    "source": "forestry",
    "name": "石夢谷步道",
    "difficulty": 3,
    "difficulty_label": "一般",
    "family_friendly": true,
    "length_km": 4.8,
    "alt_high": 1800.0,
    "alt_low": 800.0,
    "ascent": 1000.0,
    "pave": "枕木石板步道、木梯",
    "tour": "一天",
    "best_season": "四季皆宜",
    "region": "嘉義縣",
    "position": "嘉義縣阿里山鄉",
    "system": "中央山脈脊樑國家步道系統",
    "admin": "嘉義分署",
    "admin_phone": "森林育樂科:(05)2787006",
    "permit": "無",
    "transport": {
      "car": 0,
      "m_bus": 0,
      "l_bus": 0
    },
    "entrances": [
      {
        "lat": 23.572559,
        "lon": 120.772559,
        "height": 984.0,
        "memo": "位於吊橋旁"
      },
      {
        "lat": 23.555853,
        "lon": 120.778191,
        "height": 1697.0,
        "memo": "石夢谷"
      }
    ],
    "lat": 23.572559,
    "lon": 120.772559,
    "guide": "石夢谷步道位於阿里山鄉豐山村，為清水溪支流的石鼓盤溪上游，砂質岩塊河床因溪水沖刷而形成壺穴，終點為一平整之大石盤，景觀非常獨特。\r\n\r\n步道前段較平坦好走，行至情人谷可觀瀑布。因山區多雨多霧，沿途林木多有地衣及松蘿附著生長，林木幽深蓊鬱，富有原始森林氣息。",
    "url": "https://recreation.forest.gov.tw/Trail/RT?tr_id=090"
  },
  {
    "id": "forestry-092",
    "source": "forestry",
    "name": "茶之道步道",
    "difficulty": 1,
    "difficulty_label": "親子",
    "family_friendly": true,
    "length_km": 1.86,
    "alt_high": 1696.0,
    "alt_low": 1555.0,
    "ascent": 141.0,
    "pave": "枕木棧道、產業道路",
    "tour": "一天",
    "best_season": "全年",
    "region": "嘉義縣",
    "position": "嘉義縣阿里山鄉",
    "system": "雲嘉-大阿里山區域步道系統",
    "admin": "嘉義分署",
    "admin_phone": "森林育樂科:(05)2787006",
    "permit": "無",
    "transport": {
      "car": 1,
      "m_bus": 1,
      "l_bus": 0
    },
    "entrances": [
      {
        "lat": 23.485716,
        "lon": 120.707163,
        "height": 1694.0,
        "memo": "位於產業道路旁"
      },
      {
        "lat": 23.477596,
        "lon": 120.706221,
        "height": 1430.0,
        "memo": "位於產業道路旁"
      }
    ],
    "lat": 23.485716,
    "lon": 120.707163,
    "guide": "茶之道步道是「頂石棹步道群」的一員，漫步其上，可以欣賞茶園風光與柳杉林、轎蒿竹與孟宗竹林交錯銜接的奇特景緻。 步道前段主要以轎篙竹林及孟宗竹林為主，漫步於竹林小徑，聽竹葉隨風搖曳與蟲鳴合奏，心情的舒暢無以言喻，令人陶醉其中不想離去。 \r\n\r\n茶之道步道中段主要以茶園風光為特色，沿途崇山峻嶺，綠意盎然。 高聳挺拔的柳杉是森林浴的主角，原產於日本，由於生長快速且具經濟價值，在日治時期是重要的造林樹種。漫步於柳杉林中，微風徐徐，蟲鳴鳥叫合奏著森林交響曲，一面接受芬多精的洗禮，一面聆賞山林自然天籟，頓覺神清氣爽通體舒暢。 穿過竹林，走過茶園，映入眼簾的是步道制高點樂野山(九層巃坪山)，海拔約1696公尺，讓人心思開闊，是石棹觀賞日出最佳的地點。",
    "url": "https://recreation.forest.gov.tw/Trail/RT?tr_id=092"
  },
  {
    "id": "forestry-093",
    "source": "forestry",
    "name": "對高岳森林浴步道",
    "difficulty": 2,
    "difficulty_label": "輕鬆",
    "family_friendly": true,
    "length_km": 1.7,
    "alt_high": 2453.0,
    "alt_low": 2379.0,
    "ascent": 74.0,
    "pave": "山徑、木棧道",
    "tour": "半天",
    "best_season": "全年",
    "region": "嘉義縣",
    "position": "嘉義縣阿里山鄉",
    "system": "中央山脈脊樑國家步道系統",
    "admin": "嘉義分署",
    "admin_phone": "森林育樂科:(05)2787006",
    "permit": "無",
    "transport": {
      "car": 1,
      "m_bus": 1,
      "l_bus": 1
    },
    "entrances": [
      {
        "lat": 23.520852,
        "lon": 120.820359,
        "height": 2376.0,
        "memo": "位於阿里山遊樂區"
      },
      {
        "lat": 23.522061,
        "lon": 120.827536,
        "height": 2454.0,
        "memo": "山頂"
      }
    ],
    "lat": 23.520852,
    "lon": 120.820359,
    "guide": "對高岳步道入口在祝山林道3.95公里與祝山線鐵路交會處，步道會經過對高岳車站，沿途有紅檜、臺灣扁柏、冷杉優美的林相，伴隨一路登高，在對高岳凉亭前方有一處斷崖，可遠眺信義鄉神木村和社溪谷，全長約1.7公里陡上或陡下的山徑，充滿體能的挑戰！",
    "url": "https://recreation.forest.gov.tw/Trail/RT?tr_id=093"
  },
  {
    "id": "forestry-094",
    "source": "forestry",
    "name": "阿里山國家森林遊樂區巨木群步道",
    "difficulty": 1,
    "difficulty_label": "親子",
    "family_friendly": true,
    "length_km": 1.1,
    "alt_high": 2148.0,
    "alt_low": 2000.0,
    "ascent": 148.0,
    "pave": "木棧道",
    "tour": "一天",
    "best_season": "全年",
    "region": "嘉義縣",
    "position": "嘉義縣阿里山鄉",
    "system": "中央山脈脊樑國家步道系統",
    "admin": "嘉義分署",
    "admin_phone": "森林育樂科:(05)2787006",
    "permit": "無",
    "transport": {
      "car": 1,
      "m_bus": 1,
      "l_bus": 1
    },
    "entrances": [
      {
        "lat": 23.5171,
        "lon": 120.808574,
        "height": 2202.0,
        "memo": "巨木群棧道入口平台"
      }
    ],
    "lat": 23.5171,
    "lon": 120.808574,
    "guide": "阿里山神木傾倒後，為防止踐踏土壤、保護紅檜巨木及樹根，逐漸整理園區內神木，並分2段開闢穿梭於36株紅檜巨木群中興築巨木群步道，以供遊客觀賞阿里山地區最古老、且具生命力的檜木群；光武檜（香林神木）、千歲檜、樹靈塔、神木車站等皆為重要景點。",
    "url": "https://recreation.forest.gov.tw/Trail/RT?tr_id=094"
  },
  {
    "id": "forestry-095",
    "source": "forestry",
    "name": "二萬坪步道",
    "difficulty": 1,
    "difficulty_label": "親子",
    "family_friendly": true,
    "length_km": 0.3,
    "alt_high": 2036.0,
    "alt_low": 2027.0,
    "ascent": 9.0,
    "pave": "混凝土階梯、枕木步道",
    "tour": "半天",
    "best_season": "全年",
    "region": "嘉義縣",
    "position": "嘉義縣阿里山鄉",
    "system": "中央山脈脊樑國家步道系統",
    "admin": "嘉義分署",
    "admin_phone": "森林育樂科:(05)2787006",
    "permit": "無",
    "transport": {
      "car": 1,
      "m_bus": 1,
      "l_bus": 1
    },
    "entrances": [
      {
        "lat": 23.509293,
        "lon": 120.790676,
        "height": 2000.0,
        "memo": "位於青年活動中心旁"
      },
      {
        "lat": 23.509159,
        "lon": 120.791655,
        "height": 2000.0,
        "memo": "位於青年活動中心旁"
      }
    ],
    "lat": 23.509293,
    "lon": 120.790676,
    "guide": "二萬坪步道，又稱作黑森林步道，柳杉高聳入天，林相十分優美，途經「進藤熊之助」、「二宮英雄」二座紀念碑。整片的柳杉是阿里山伐木時期結束後，植樹時期所種。杉林濃密，即便在中午時分也只有一半的日光照射進來，稍早或稍晚都很昏暗，故有黑森林之稱。",
    "url": "https://recreation.forest.gov.tw/Trail/RT?tr_id=095"
  },
  {
    "id": "forestry-096",
    "source": "forestry",
    "name": "十字路來吉古道",
    "difficulty": 2,
    "difficulty_label": "輕鬆",
    "family_friendly": true,
    "length_km": 0.7,
    "alt_high": 1500.0,
    "alt_low": 1400.0,
    "ascent": 100.0,
    "pave": "山徑、石板階梯",
    "tour": "半天",
    "best_season": "全年",
    "region": "嘉義縣",
    "position": "嘉義縣阿里山鄉",
    "system": "中央山脈脊樑國家步道系統",
    "admin": "嘉義分署",
    "admin_phone": "森林育樂科:(05)2787006",
    "permit": "無",
    "transport": {
      "car": 1,
      "m_bus": 1,
      "l_bus": 1
    },
    "entrances": [
      {
        "lat": 23.4975,
        "lon": 120.753889,
        "height": 1398.0,
        "memo": "位於阿區14林班圖147號蔡瑞偉租地造林地旁"
      },
      {
        "lat": 23.492787,
        "lon": 120.75426,
        "height": 1524.0,
        "memo": "位於十字路車站旁"
      }
    ],
    "lat": 23.4975,
    "lon": 120.753889,
    "guide": "十字路來吉古道，入口位於十字路車站旁，海拔高度約1500公尺，古道原長5.4公里，為過去來吉居民對外聯繫道路，擁有重要歷史意義。\r\n林業及自然保育署修繕十字路附近0.7公里長的自然步道，以山徑與石階為主，其餘4.6公里為產業道路，由此下坡可至海拔800公尺的來吉。步道沿途有柳杉林、桂竹林與小橋流水，自然生態非常豐富。\r\n",
    "url": "https://recreation.forest.gov.tw/Trail/RT?tr_id=096"
  },
  {
    "id": "forestry-098",
    "source": "forestry",
    "name": "里佳-山美步道",
    "difficulty": 3,
    "difficulty_label": "一般",
    "family_friendly": true,
    "length_km": 1.3,
    "alt_high": 1000.0,
    "alt_low": 800.0,
    "ascent": 200.0,
    "pave": "木棧道、山徑",
    "tour": "一天",
    "best_season": "全年",
    "region": "嘉義縣",
    "position": "嘉義縣阿里山鄉",
    "system": "中央山脈脊樑國家步道系統",
    "admin": "嘉義分署",
    "admin_phone": "森林育樂科:(05)2787006",
    "permit": "無",
    "transport": {
      "car": 1,
      "m_bus": 1,
      "l_bus": 1
    },
    "entrances": [
      {
        "lat": 23.336429,
        "lon": 120.707139,
        "height": 725.0,
        "memo": "位於產業道路旁"
      },
      {
        "lat": 23.332491,
        "lon": 120.711431,
        "height": 726.0,
        "memo": "步道崩塌終點"
      }
    ],
    "lat": 23.336429,
    "lon": 120.707139,
    "guide": "里佳-山美步道又名里美古道或鬼山古道，位於嘉義縣阿里山鄉，連接里佳到山美兩處鄒族部落，早在清代就被漢人通事利用為原漢交易的重要路線，是過去里佳、山美、新美部落在無公路之前唯一往來的路徑。\r\n\r\n步道原本途經里佳峽谷、里佳瀑布、龍鳳谷、象山、曾文溪及達娜伊谷，總長約5.6公里，但經歷多次風災地震後部分路段已崩毀中斷，目前僅可從里佳通行至1.2公里處的里佳瀑布觀瀑亭。 \r\n\r\n里佳瀑布高達100公尺，由觀瀑亭欣賞涓涓白練掛在石壁上，直瀉溪谷，沿途可遠眺象山，風景秀麗、涼爽怡人，輕鬆好走，適合全家同遊。 除步道本身外，還可順遊里佳部落。",
    "url": "https://recreation.forest.gov.tw/Trail/RT?tr_id=098"
  },
  {
    "id": "forestry-099",
    "source": "forestry",
    "name": "奮瑞古道",
    "difficulty": 2,
    "difficulty_label": "輕鬆",
    "family_friendly": false,
    "length_km": 6.5,
    "alt_high": 1600.0,
    "alt_low": 1100.0,
    "ascent": 500.0,
    "pave": "山徑、石板步道",
    "tour": "一天",
    "best_season": "四季皆宜",
    "region": "嘉義縣",
    "position": "嘉義縣竹崎鄉",
    "system": "中央山脈脊樑國家步道系統",
    "admin": "嘉義分署",
    "admin_phone": "森林育樂科:(05)2787006",
    "permit": "無",
    "transport": {
      "car": 1,
      "m_bus": 1,
      "l_bus": 1
    },
    "entrances": [
      {
        "lat": 23.504833,
        "lon": 120.693148,
        "height": 1428.0,
        "memo": "位於電力公司旁"
      },
      {
        "lat": 23.543254,
        "lon": 120.683382,
        "height": 1146.0,
        "memo": "位於茶場旁"
      }
    ],
    "lat": 23.504833,
    "lon": 120.693148,
    "guide": "奮瑞古道銜接奮起湖和瑞里兩處著名風景區，清朝時期先民挑擔往來通商，至今仍保存悶柴窯的遺跡、陰陽廟、神社等遺址。步道自火車站前紅磚階道而上，銜接環村生態步道與巨木山徑，後接奮太及瑞太古道，一路上在茂密原始林與孟宗竹林間穿梭，沿途還有參天聳立、丰姿互異的櫧櫟巨木群。",
    "url": "https://recreation.forest.gov.tw/Trail/RT?tr_id=099"
  },
  {
    "id": "forestry-100",
    "source": "forestry",
    "name": "奮起湖大凍山步道",
    "difficulty": 2,
    "difficulty_label": "輕鬆",
    "family_friendly": false,
    "length_km": 7.1,
    "alt_high": 1976.0,
    "alt_low": 1645.0,
    "ascent": 331.0,
    "pave": "山徑、石板步道、枕木碎石步道",
    "tour": "一天",
    "best_season": "全年",
    "region": "嘉義縣",
    "position": "嘉義縣竹崎鄉",
    "system": "中央山脈脊樑國家步道系統",
    "admin": "嘉義分署",
    "admin_phone": "森林育樂科:(05)2787006",
    "permit": "無",
    "transport": {
      "car": 1,
      "m_bus": 0,
      "l_bus": 0
    },
    "entrances": [
      {
        "lat": 23.497822,
        "lon": 120.719894,
        "height": 1976.0,
        "memo": "山頂觀景平台三角點"
      },
      {
        "lat": 23.500138,
        "lon": 120.71235,
        "height": 1665.0,
        "memo": "位於派出所旁"
      },
      {
        "lat": 23.496334,
        "lon": 120.716304,
        "height": 1770.0,
        "memo": "頂湖石獅象入口"
      },
      {
        "lat": 23.494776,
        "lon": 120.723386,
        "height": 1880.0,
        "memo": "頂湖產業道路入口"
      }
    ],
    "lat": 23.497822,
    "lon": 120.719894,
    "guide": "奮起湖大凍山山頂擁有近2千公尺的觀景亭，在天氣晴朗時視野寬廣，能遠眺阿里山、玉山、曾文水庫、草嶺等嘉義縣四周的風景名勝，更可以觀日出、雲海及晚霞。",
    "url": "https://recreation.forest.gov.tw/Trail/RT?tr_id=100"
  },
  {
    "id": "forestry-103",
    "source": "forestry",
    "name": "土匪山步道",
    "difficulty": 1,
    "difficulty_label": "親子",
    "family_friendly": true,
    "length_km": 0.85,
    "alt_high": 700.0,
    "alt_low": 640.0,
    "ascent": 60.0,
    "pave": "枕木碎石步道、木棧道",
    "tour": null,
    "best_season": "全年",
    "region": "嘉義縣",
    "position": "嘉義縣番路鄉",
    "system": "雲嘉-大阿里山區域步道系統",
    "admin": "嘉義分署",
    "admin_phone": "森林育樂科:(05)2787006",
    "permit": "無",
    "transport": {
      "car": 0,
      "m_bus": 0,
      "l_bus": 0
    },
    "entrances": [
      {
        "lat": 23.497822,
        "lon": 120.719894,
        "height": 1976.0,
        "memo": "山頂觀景平台三角點"
      },
      {
        "lat": 23.429539,
        "lon": 120.611814,
        "height": 356.0,
        "memo": "終點"
      }
    ],
    "lat": 23.497822,
    "lon": 120.719894,
    "guide": "土匪山又稱番路山，海拔高度794公尺。而土匪山步道則位於嘉義縣番路鄉公興社區，長約0.85公里。步道登山口在公興社區（外腦寮），最高海拔約700公尺。",
    "url": "https://recreation.forest.gov.tw/Trail/RT?tr_id=103"
  },
  {
    "id": "forestry-105",
    "source": "forestry",
    "name": "關子嶺大凍山步道",
    "difficulty": 2,
    "difficulty_label": "輕鬆",
    "family_friendly": true,
    "length_km": 2.3,
    "alt_high": 1241.0,
    "alt_low": 770.0,
    "ascent": 471.0,
    "pave": "枕木碎石步道、山徑",
    "tour": "一天",
    "best_season": "全年",
    "region": "臺南市",
    "position": "臺南市白河區",
    "system": "中央山脈脊樑國家步道系統",
    "admin": "嘉義分署",
    "admin_phone": "森林育樂科:(05)2787006",
    "permit": "無",
    "transport": {
      "car": 0,
      "m_bus": 0,
      "l_bus": 0
    },
    "entrances": [
      {
        "lat": 23.311323,
        "lon": 120.522647,
        "height": 1220.0,
        "memo": "三角點"
      },
      {
        "lat": 23.318552,
        "lon": 120.509666,
        "height": 474.0,
        "memo": "土地公廟"
      },
      {
        "lat": 23.311792,
        "lon": 120.522567,
        "height": 1218.0,
        "memo": "土地公廟"
      }
    ],
    "lat": 23.311323,
    "lon": 120.522647,
    "guide": "大凍山，又名大棟山，為台南市白河區與嘉義縣大埔鄉交界處的一座山峰，標高1241公尺，山勢雄偉廣大，西壁峭崖壯麗，為台南縣的第一高峰，也是台灣小百岳之一。一路可遠眺白河、鹿寮水庫及嘉義縣仁義潭、蘭潭水庫等，山頂有座早期為防範森林火災所設置之防火瞭望台，視野廣闊，可以觀賞關仔嶺群山交疊、蒼蒼鬱鬱的景致與關仔嶺溫泉區及嘉南平原。 步道沿途為低海拔闊葉林，溫暖潮濕的氣候使植物高大茂盛，生態豐富，冬日來此可賞清新脫俗的寒梅，片片白瓣紛飛，與落日餘暉相映、美不勝收。 ",
    "url": "https://recreation.forest.gov.tw/Trail/RT?tr_id=105"
  },
  {
    "id": "forestry-106",
    "source": "forestry",
    "name": "關子嶺碧雲寺-水火同源登山步道",
    "difficulty": 1,
    "difficulty_label": "親子",
    "family_friendly": true,
    "length_km": 1.5,
    "alt_high": 500.0,
    "alt_low": 350.0,
    "ascent": 150.0,
    "pave": "枕木步道、山徑",
    "tour": "半天",
    "best_season": "全年",
    "region": "臺南市",
    "position": "臺南市白河區",
    "system": "中央山脈脊樑國家步道系統",
    "admin": "嘉義分署",
    "admin_phone": "森林育樂科:(05)2787006",
    "permit": "無",
    "transport": {
      "car": 1,
      "m_bus": 1,
      "l_bus": 1
    },
    "entrances": [
      {
        "lat": 23.325098,
        "lon": 120.481294,
        "height": 391.0,
        "memo": "位於廟旁"
      },
      {
        "lat": 23.311323,
        "lon": 120.522647,
        "height": 494.0,
        "memo": "位於水火同源景點旁"
      }
    ],
    "lat": 23.325098,
    "lon": 120.481294,
    "guide": "關仔嶺碧雲寺-水火同源登山步道自碧雲寺三寶殿出發，健行至「水火同源」，步道間不時可見蒼翠山巒之景，而水火同源更是臺南白河區著名景點之一。",
    "url": "https://recreation.forest.gov.tw/Trail/RT?tr_id=106"
  },
  {
    "id": "forestry-107",
    "source": "forestry",
    "name": "崁頂步道",
    "difficulty": 1,
    "difficulty_label": "親子",
    "family_friendly": true,
    "length_km": 0.5,
    "alt_high": 530.0,
    "alt_low": 510.0,
    "ascent": 20.0,
    "pave": "枕木步道",
    "tour": "半天",
    "best_season": "全年",
    "region": "臺南市",
    "position": "臺南市白河區",
    "system": "中央山脈脊樑國家步道系統",
    "admin": "嘉義分署",
    "admin_phone": "森林育樂科:(05)2787006",
    "permit": "無",
    "transport": {
      "car": 1,
      "m_bus": 1,
      "l_bus": 1
    },
    "entrances": [
      {
        "lat": 23.297239,
        "lon": 120.503213,
        "height": 517.0,
        "memo": "福安宮後方"
      },
      {
        "lat": 23.297024,
        "lon": 120.50382,
        "height": 530.0,
        "memo": "福安宮後方"
      }
    ],
    "lat": 23.297239,
    "lon": 120.503213,
    "guide": "崁頂步道僅有500公尺左右，來回往返約半小時即可走完，位於崁頂福安宮廟宇後方植物園內，區內樹木林立，環境優雅，鳥類資源亦相當豐富。",
    "url": "https://recreation.forest.gov.tw/Trail/RT?tr_id=107"
  },
  {
    "id": "forestry-108",
    "source": "forestry",
    "name": "雞籠山步道",
    "difficulty": 1,
    "difficulty_label": "親子",
    "family_friendly": true,
    "length_km": 1.6,
    "alt_high": 889.0,
    "alt_low": 878.0,
    "ascent": 11.0,
    "pave": "枕木、山徑、石板步道",
    "tour": "半天",
    "best_season": "全年",
    "region": "臺南市",
    "position": "臺南市白河區",
    "system": "中央山脈脊樑國家步道系統",
    "admin": "嘉義分署",
    "admin_phone": "森林育樂科:(05)2787006",
    "permit": "無",
    "transport": {
      "car": 0,
      "m_bus": 0,
      "l_bus": 0
    },
    "entrances": [
      {
        "lat": 23.317577,
        "lon": 120.515506,
        "height": 520.0,
        "memo": "位於廟旁"
      },
      {
        "lat": 23.317577,
        "lon": 120.515506,
        "height": 520.0,
        "memo": "位於廟旁"
      }
    ],
    "lat": 23.317577,
    "lon": 120.515506,
    "guide": "雞籠山屬於關嶺群峰之一，因山頂形似雞籠而得名。距登山口約2公里路程，步道沿途有多處角落可遠眺嘉南平原，視野極佳。山頂設有木造涼亭一座，登頂前的一小段，種植有許多梅樹，春寒時節走在這片梅花樹下，可見雪白色正散發著清香的花朵。",
    "url": "https://recreation.forest.gov.tw/Trail/RT?tr_id=108"
  },
  {
    "id": "forestry-109",
    "source": "forestry",
    "name": "崁頭山步道",
    "difficulty": 2,
    "difficulty_label": "輕鬆",
    "family_friendly": false,
    "length_km": 3.2,
    "alt_high": 844.0,
    "alt_low": 580.0,
    "ascent": 264.0,
    "pave": "山徑、石板步道",
    "tour": "半天",
    "best_season": "四季皆宜",
    "region": "臺南市",
    "position": "臺南市東山區",
    "system": "中央山脈脊樑國家步道系統",
    "admin": "嘉義分署",
    "admin_phone": "森林育樂科:(05)2787006",
    "permit": "無",
    "transport": {
      "car": 1,
      "m_bus": 1,
      "l_bus": 1
    },
    "entrances": [
      {
        "lat": 23.267352,
        "lon": 120.50133,
        "height": 562.0,
        "memo": "孚佑宮後方"
      },
      {
        "lat": 23.265944,
        "lon": 120.504492,
        "height": 836.0,
        "memo": "孚佑宮後方"
      }
    ],
    "lat": 23.267352,
    "lon": 120.50133,
    "guide": "崁頭山位居曾文水庫集水區周邊群山之內，標高844公尺，步道屬低海拔闊葉林，林蔭茂密、植被豐富，還有四公頃餘的樟樹林。沿路及山頂可眺望東山之聚落景觀、嘉南平原，天氣晴朗時還可看到嘉南的濱海地區，雨後常有雲海、雲瀑，美不勝收。",
    "url": "https://recreation.forest.gov.tw/Trail/RT?tr_id=109"
  },
  {
    "id": "forestry-114",
    "source": "forestry",
    "name": "鈺鼎步道",
    "difficulty": 1,
    "difficulty_label": "親子",
    "family_friendly": true,
    "length_km": 1.8,
    "alt_high": 430.0,
    "alt_low": 170.0,
    "ascent": 260.0,
    "pave": "石階、原木棧道",
    "tour": "半天",
    "best_season": "全年",
    "region": "臺南市",
    "position": "臺南市南化區",
    "system": "其他",
    "admin": "嘉義分署",
    "admin_phone": "森林育樂科:(05)2787006",
    "permit": "無",
    "transport": {
      "car": 1,
      "m_bus": 1,
      "l_bus": 1
    },
    "entrances": [
      {
        "lat": 23.084732,
        "lon": 120.509981,
        "height": 753.0,
        "memo": "步道入口"
      },
      {
        "lat": 23.095062,
        "lon": 120.515381,
        "height": 430.0,
        "memo": "步道終點景觀涼亭"
      }
    ],
    "lat": 23.084732,
    "lon": 120.509981,
    "guide": "臺南鈺鼎步道位於臺南市南化區北寮里，步道全長1.6公里，約有1,470個階梯，從標高170公尺爬升到430公尺，全程幾乎都是由石階和原木棧道所鋪成。\r\n鈺鼎步道由天豔宮起登，沿途林木扶疏，景色優美環境清幽，保有原始林自然生態，其中更以原生的月橘樹群最為珍貴，還有徑幹粗大且數量眾多的百年月橘老樹，是鈺鼎步道最具特色的自然景觀。漫步幽林中能洗滌心靈、安撫身心，是一條新興熱門且休閒的健康步道。",
    "url": "https://recreation.forest.gov.tw/Trail/RT?tr_id=114"
  },
  {
    "id": "forestry-119",
    "source": "forestry",
    "name": "北大武山步道",
    "difficulty": 5,
    "difficulty_label": "挑戰",
    "family_friendly": false,
    "length_km": 9.0,
    "alt_high": 3092.0,
    "alt_low": 1500.0,
    "ascent": 1592.0,
    "pave": "山徑、階梯",
    "tour": "一天以上",
    "best_season": "四季皆宜",
    "region": "屏東縣",
    "position": "屏東縣泰武鄉",
    "system": "中央山脈脊樑國家步道系統",
    "admin": "屏東分署",
    "admin_phone": "80潮州工作站:(087882647)877882647",
    "permit": "無",
    "transport": {
      "car": 0,
      "m_bus": 0,
      "l_bus": 0
    },
    "entrances": [
      {
        "lat": 22.624337,
        "lon": 120.714575,
        "height": 1500.0,
        "memo": "舊登山口（屏東事業區第32林班）"
      },
      {
        "lat": 22.627024,
        "lon": 120.761343,
        "height": 3092.0,
        "memo": null
      },
      {
        "lat": 22.627024,
        "lon": 120.761343,
        "height": 3092.0,
        "memo": null
      }
    ],
    "lat": 22.624337,
    "lon": 120.714575,
    "guide": "北大武山為中央山脈南端最後一座海拔超過3千公尺以上的高山，名列台灣五嶽之一，當地排灣族視為聖山，稱之為「kavulungan」。擁有全臺面積最大的原始林，蘊藏著豐富的生物資源。從舊登山口沿途行經檜谷山莊、大武祠至北大武山頂，共約9公里，海拔變化約有1549公尺，都在南臺灣自然美景的最精華區域「雙鬼湖野生動物重要棲息環境」內。而最令人驚豔的著名美景則是秋冬季的雲海。近年來，步道受到颱風豪雨影響，造成多處路段路基崩塌而高繞改道，籲請民眾行走注意自身安全。",
    "url": "https://recreation.forest.gov.tw/Trail/RT?tr_id=119"
  },
  {
    "id": "forestry-120",
    "source": "forestry",
    "name": "六龜警備道：藤枝段",
    "difficulty": 3,
    "difficulty_label": "一般",
    "family_friendly": false,
    "length_km": 0.75,
    "alt_high": 1800.0,
    "alt_low": 1750.0,
    "ascent": 50.0,
    "pave": "山徑、階梯",
    "tour": "自東藤枝山三角點往下走，經藤枝步道群（西施花步道2.6K-2.5k）接六龜警備道後再接到西施花步道下段（1.6K））",
    "best_season": "四季皆宜",
    "region": "高雄市",
    "position": "高雄市桃源區",
    "system": "中央山脈脊樑國家步道系統",
    "admin": "屏東分署",
    "admin_phone": "六龜工作站:(07)6893118",
    "permit": "無",
    "transport": {
      "car": 0,
      "m_bus": 0,
      "l_bus": 0
    },
    "entrances": [
      {
        "lat": 23.075648,
        "lon": 120.766318,
        "height": 1650.0,
        "memo": "東藤枝山瞭望台"
      },
      {
        "lat": 23.081739,
        "lon": 120.769284,
        "height": 1600.0,
        "memo": "府中分遣所遺址"
      }
    ],
    "lat": 23.075648,
    "lon": 120.766318,
    "guide": "六龜警備線道是日治時期南部興建的第一條警備線，主要為防堵原住民出草阻礙日本政府樟腦事業的發展，遂設置隘勇線及通電鐵絲網以保護採樟腦的工人及日人；並駐防高密度的軍事武力，沿線共設置53座分駐所、4處監督所，至今仍留有許多遺跡。位於藤枝國家森林遊樂區範圍內，與園區內西施花步道部分路段重疊。",
    "url": "https://recreation.forest.gov.tw/Trail/RT?tr_id=120"
  },
  {
    "id": "forestry-122",
    "source": "forestry",
    "name": "浸水營古道：西段",
    "difficulty": 3,
    "difficulty_label": "一般",
    "family_friendly": false,
    "length_km": 2.5,
    "alt_high": 1400.0,
    "alt_low": 1150.0,
    "ascent": 250.0,
    "pave": null,
    "tour": "半天",
    "best_season": null,
    "region": "屏東縣",
    "position": "屏東縣春日鄉",
    "system": "中央山脈脊樑國家步道系統",
    "admin": "屏東分署",
    "admin_phone": "潮州工作站:(08)7882647",
    "permit": "無",
    "transport": {
      "car": 1,
      "m_bus": 0,
      "l_bus": 0
    },
    "entrances": [
      {
        "lat": 22.40772,
        "lon": 120.756601,
        "height": 1450.0,
        "memo": "大漢林道約23.5k"
      },
      {
        "lat": 22.407294,
        "lon": 120.773687,
        "height": 1430.0,
        "memo": "州廳界"
      }
    ],
    "lat": 22.40772,
    "lon": 120.756601,
    "guide": "入口位於大漢林道約23.6k，至州廳界間，約2.7公里為浸水營步道（西段）。在104年間經屏東縣政府依文化資產保存法公告為文化景觀。",
    "url": "https://recreation.forest.gov.tw/Trail/RT?tr_id=122"
  },
  {
    "id": "forestry-125",
    "source": "forestry",
    "name": "美濃雙溪樹木園步道",
    "difficulty": 1,
    "difficulty_label": "親子",
    "family_friendly": false,
    "length_km": 1.5,
    "alt_high": 200.0,
    "alt_low": 100.0,
    "ascent": 100.0,
    "pave": "山徑",
    "tour": "半天",
    "best_season": "四季皆宜",
    "region": "高雄市",
    "position": "高雄市美濃區",
    "system": "高雄區域步道系統",
    "admin": "屏東分署",
    "admin_phone": "旗山工作站:(07)6612031",
    "permit": "無",
    "transport": {
      "car": 1,
      "m_bus": 1,
      "l_bus": 1
    },
    "entrances": [
      {
        "lat": 22.933315,
        "lon": 120.59191,
        "height": 100.0,
        "memo": "雙溪樹木園入口"
      }
    ],
    "lat": 22.933315,
    "lon": 120.59191,
    "guide": "雙溪樹木園位於美濃區東北隅的廣林里，鄰近著名的黃蝶翠谷，為美濃溪上游，由二溪匯流包圍而得名，前身為1935年日人設立的「竹頭角熱帶樹木園」，面積達7.56公頃，引進、搜集並培育熱帶珍貴或具經濟價值的樹種；光復後因鮮少進行補植，再加上人為干擾較少，因此除原本的熱帶樹種自行更新外，尚可見部分臺灣次生樹種逐漸進入。\r\n\r\n步道設施及指標完善，步道的盡頭是最高點的觀景平台。行走在高大的林蔭下，可感受濃密綠蔭的沁涼，放慢腳步，保持愉悅的心，將是一趟很棒的森林之旅。\r\n",
    "url": "https://recreation.forest.gov.tw/Trail/RT?tr_id=125"
  },
  {
    "id": "forestry-127",
    "source": "forestry",
    "name": "美濃靈山登山步道",
    "difficulty": 1,
    "difficulty_label": "親子",
    "family_friendly": true,
    "length_km": 1.27,
    "alt_high": 476.0,
    "alt_low": 150.0,
    "ascent": 326.0,
    "pave": "水泥鋪面及泥土路",
    "tour": "半天",
    "best_season": null,
    "region": "高雄市",
    "position": "高雄市美濃區",
    "system": "中央山脈脊樑國家步道系統",
    "admin": "屏東分署",
    "admin_phone": "旗山工作站:(07)6612031",
    "permit": "無",
    "transport": {
      "car": 1,
      "m_bus": 1,
      "l_bus": 1
    },
    "entrances": [
      {
        "lat": 22.909345,
        "lon": 120.519962,
        "height": 130.0,
        "memo": null
      },
      {
        "lat": 22.909167,
        "lon": 120.514738,
        "height": 390.0,
        "memo": null
      },
      {
        "lat": 22.909167,
        "lon": 120.514738,
        "height": 390.0,
        "memo": null
      }
    ],
    "lat": 22.909345,
    "lon": 120.519962,
    "guide": "靈山屬月光山系，為玉山山脈尾稜，山勢形如大冠鷲，位於高雄市旗山區、美濃區交界處，靈山山麓下的村庄也是三百年前美濃區開庄的發源地。靈山步道為美濃區之熱門步道，多為在地人運動休閒之好去處。 靈山步道入口位於雷音寺旁，沿途林蔭茂密、林相優美，登頂有座福德祠，可遠眺旗山市區及美濃平原，登高望遠使人心曠神怡！從山上福德祠後可走到人斗山三角點，沿途竹木錯落，行走來相當愜意。",
    "url": "https://recreation.forest.gov.tw/Trail/RT?tr_id=127"
  },
  {
    "id": "forestry-130",
    "source": "forestry",
    "name": "六義山步道",
    "difficulty": 1,
    "difficulty_label": "親子",
    "family_friendly": false,
    "length_km": 4.35,
    "alt_high": 784.0,
    "alt_low": 350.0,
    "ascent": 434.0,
    "pave": "階梯、產業道路、山徑",
    "tour": "一天",
    "best_season": "四季皆宜",
    "region": "高雄市",
    "position": "高雄市甲仙區",
    "system": "中央山脈脊樑國家步道系統",
    "admin": "屏東分署",
    "admin_phone": "旗山工作站:(07)6612031",
    "permit": "無",
    "transport": {
      "car": 0,
      "m_bus": 0,
      "l_bus": 0
    },
    "entrances": [
      {
        "lat": 23.068283,
        "lon": 120.554066,
        "height": 334.0,
        "memo": "臺20線-紫霞入口往北約200公尺"
      },
      {
        "lat": 23.076137,
        "lon": 120.559604,
        "height": 650.0,
        "memo": "百葉入口"
      },
      {
        "lat": 23.078692,
        "lon": 120.562787,
        "height": 680.0,
        "memo": "公館入口"
      },
      {
        "lat": 23.094054,
        "lon": 120.576374,
        "height": 660.0,
        "memo": "甲仙區四德福德宮"
      }
    ],
    "lat": 23.068283,
    "lon": 120.554066,
    "guide": "六義山海拔約784公尺，屬阿里山山脈烏山山系，為高雄甲仙與台南南化的界山，日治時期就是熱門的登山路線。步道沿山脊開發，仿日治時期古道開鑿而成，採用自然生態工法設仿木紋樁路面；共有四處登山入口，由北至南分別為四德、公館、百葉與紫霞入口，縱走單程約花費三小時。 六義山步道周遭為租地造林地，步道沿途林蔭鬱蔽，樹種繁多，四季呈現不同風貌，尤其冬季一片梅樹開花，香味撲鼻、美麗夢幻。往西、東、南方向可眺望南化水庫、中央山脈及阿里山烏山山系，視野遼闊十分適合觀賞夕照。",
    "url": "https://recreation.forest.gov.tw/Trail/RT?tr_id=130"
  },
  {
    "id": "forestry-131",
    "source": "forestry",
    "name": "尾寮山登山步道",
    "difficulty": 2,
    "difficulty_label": "輕鬆",
    "family_friendly": false,
    "length_km": 15.0,
    "alt_high": 1430.0,
    "alt_low": 200.0,
    "ascent": 1230.0,
    "pave": "產業道路、山徑",
    "tour": "一天",
    "best_season": "四季皆宜",
    "region": "屏東縣",
    "position": "屏東縣高樹鄉、三地門鄉；高雄市茂林區",
    "system": "中央山脈脊樑國家步道系統",
    "admin": "屏東分署",
    "admin_phone": "潮州工作站:(08)7882647",
    "permit": "無",
    "transport": {
      "car": 1,
      "m_bus": 1,
      "l_bus": 1
    },
    "entrances": [
      {
        "lat": 22.86052,
        "lon": 120.64128,
        "height": 100.0,
        "memo": "大津瀑布,慈津寶宮"
      },
      {
        "lat": 22.874118,
        "lon": 120.648203,
        "height": 350.0,
        "memo": "主線西側約2k"
      },